"ID","緯度","経度","ジャンル1","サブジャンル1","ジャンル2","サブジャンル2","ジャンル3","サブジャンル3","名称","概略","郵便番号","住所","電話番号","Fax番号","E-mail","開館時間","休館日","料金","備考","リンク"
"1498","36.596767","136.737368","避難所","","","","","","三谷公民館（指定避難場所）","収容人数：138
災害適否  地震：利用可能 津波：利用可能 洪水：利用可能 土砂：利用可能","920-0153","金沢市宮野町ホ79","","","","","","","",""
"1499","36.595839","136.735955","避難所","","","","","","三谷小学校（指定避難場所）","収容人数：1356
災害適否  地震：利用可能 津波：利用可能 洪水：利用可能 土砂：利用可能","920-0153","金沢市宮野町ニ277","","","","","","","標高：26.5M",""
"1500","36.608065","136.70866","避難所","","","","","","薬師谷公民館（指定避難場所）","収容人数：140
災害適否  地震：利用可能 津波：利用可能 洪水：利用可能 土砂：利用可能","920-0173","金沢市不動寺町イ34-1","","","","","","","標高：15.4M",""
"1501","36.608454","136.708621","避難所","","","","","","不動寺小学校（指定避難場所）","収容人数：1408
災害適否  地震：利用可能 津波：利用可能 洪水：利用可能 土砂：利用可能","920-0173","金沢市不動寺町イ33","","","","","","","標高：16.0M",""
"1502","36.625904","136.678448","避難所","","","","","","柳瀬川つつみ公園（指定避難場所）","災害適否  地震：利用可能 津波：利用可能 洪水：未利用 土砂：利用可能","920-3121","金沢市大場町東","","","","","","","",""
"1503","36.626012","136.688192","避難所","","","","","","湖陽児童公園（指定避難場所）","災害適否  地震：利用可能 津波：利用可能 洪水：未利用 土砂：利用可能","920-3103","金沢市湖陽１丁目","","","","","","","",""
"1504","36.627243","136.688814","避難所","","","","","","湖陽緑道公園（指定避難場所）","災害適否  地震：利用可能 津波：利用可能 洪水：未利用 土砂：利用可能","920-3103","金沢市湖陽１丁目","","","","","","","",""
"1505","36.626614","136.691389","避難所","","","","","","北部公園（指定避難場所）","災害適否  地震：利用可能 津波：利用可能 洪水：未利用 土砂：利用可能","920-3117","金沢市北森本町","","","","","","","",""
"1506","36.635289","136.672918","避難所","","","","","","競馬場（指定避難場所）","災害適否  地震：利用可能 津波：利用可能 洪水：未利用 土砂：利用可能","920-3105","金沢市八田町西１","","","","","","","",""
"1507","36.624178","136.686892","避難所","","","","","","金沢向陽高校（指定避難場所）","収容人数：457
災害適否  地震：利用可能 津波：利用可能 洪水：２階以上で利用可能 土砂：利用可能","920-3121","金沢市大場町東590","","","","","","","標高：2.9M",""
"1508","36.633183","136.686089","避難所","","","","","","湖南公民館（指定避難場所）","収容人数：111
災害適否  地震：利用可能 津波：利用可能 洪水：２階以上で利用可能 土砂：利用可能","920-3104","金沢市八田町東1459","","","","","","","標高：1.1M",""
"1509","36.627772","136.773839","避難所","","","","","","旧上平小学校（指定避難場所）","収容人数：161
災害適否  地震：利用不可 津波：利用可能 洪水：利用可能 土砂：利用可能","920-0122","金沢市上平町ハ２５","","","","","","","標高：93.8M",""
"1510","36.622653","136.755593","避難所","","","","","","旧朝日小学校（指定避難場所）","収容人数：315
災害適否  地震：利用不可 津波：利用可能 洪水：利用可能 土砂：利用可能","920-0114","金沢市加賀朝日町ホ33","","","","","","","標高：161.1M",""
"1511","36.633483","136.707671","避難所","","","","","","花園公民館（指定避難場所）","収容人数：112
災害適否  地震：利用可能 津波：利用可能 洪水：２階以上で利用可能 土砂：利用可能","920-0106","金沢市今町チ41","","","","","","","標高：3.0M",""
"1512","36.632644","136.708209","避難所","","","","","","花園小学校（指定避難場所）","収容人数：1225
災害適否  地震：利用可能 津波：利用可能 洪水：利用可能 土砂：利用可能","920-0106","金沢市今町ヌ34","","","","","","","標高：5.0M",""
"1513","36.615213","136.696772","避難所","","","","","","森本こどもグラウンド（指定避難場所）","災害適否  地震：利用可能 津波：利用可能 洪水：利用可能 土砂：利用可能","920-3113","金沢市塚崎町ハ47-1","","","","","","","",""
"1514","36.616339","136.698538","避難所","","","","","","森本しちょうが丘公園（指定避難場所）","災害適否  地震：利用可能 津波：利用可能 洪水：未利用 土砂：利用可能","920-3116","金沢市南森本町ワ102","","","","","","","",""
"1515","36.609586","136.692535","避難所","","","","","","吉原児童公園（指定避難場所）","災害適否  地震：利用可能 津波：利用可能 洪水：利用可能 土砂：利用可能","920-3114","金沢市吉原町ヨ23","","","","","","","",""
"1516","36.615877","136.6925","避難所","","","","","","森本市民体育館（指定避難場所）","収容人数：399
災害適否  地震：利用可能 津波：利用可能 洪水：利用可能 土砂：利用可能","920-3115","金沢市弥勒町ヨ50-1","","","","","","","標高：5.7M",""
"1517","36.616718","136.693325","避難所","","","","","","森本公民館（指定避難場所）","収容人数：153
災害適否  地震：利用可能 津波：利用可能 洪水：利用可能 土砂：利用可能","920-3116","金沢市南森本町チ103-1","","","","","","","標高：5.6M",""
"1518","36.607317","136.692459","避難所","","","","","","金沢北陵高校（指定避難場所）","収容人数：624
災害適否  地震：利用可能 津波：利用可能 洪水：利用可能 土砂：利用可能","920-3114","金沢市吉原町ワ21","","","","","","","標高：61.7M",""
"1519","36.615833","136.691603","避難所","","","","","","森本中学校（指定避難場所）","収容人数：3433
災害適否  地震：利用可能 津波：利用可能 洪水：２階以上で利用可能 土砂：利用可能","920-3115","金沢市弥勒町ヨ22","","","","","","","標高：4.9M",""
"1520","36.622793","136.693039","避難所","","","","","","森本小学校（指定避難場所）","収容人数：2059
災害適否  地震：利用可能 津波：利用可能 洪水：２階以上で利用可能 土砂：利用可能","920-3116","金沢市南森本町イ111","","","","","","","標高：4.5M",""
"1521","36.562139","136.761959","避難所","","","","","","医王山公民館（指定避難場所）","収容人数：160
災害適否  地震：利用可能 津波：利用可能 洪水：利用可能 土砂：利用可能","920-1102","金沢市二俣町六字14-9","","","","","","","標高：81.4M",""
"1522","36.555637","136.759845","避難所","","","","","","医王山中学校（指定避難場所）","収容人数：701
災害適否  地震：利用可能 津波：利用可能 洪水：利用可能 土砂：利用可能","920-1102","金沢市二俣町さ21","","","","","","","標高：117.6M",""
"1523","36.555637","136.759845","避難所","","","","","","医王山小学校（指定避難場所）","収容人数：770
災害適否  地震：利用可能 津波：利用可能 洪水：利用可能 土砂：利用可能","920-1102","金沢市二俣町さ21","","","","","","","標高：117.6M",""
"1524","36.546368","136.731939","避難所","","","","","","戸室スポーツ広場（指定避難場所）","災害適否  地震：利用可能 津波：利用可能 洪水：利用可能 土砂：利用可能","920-1105","金沢市戸室新保ト35","","","","","","","",""
"1525","36.53441","136.725022","避難所","","","","","","俵公民館（指定避難場所）","収容人数：45
災害適否  地震：利用不可 津波：利用可能 洪水：利用可能 土砂：利用可能","920-1108","金沢市俵町ツ63-2","","","","","","","",""
"1526","36.534358","136.723683","避難所","","","","","","旧俵小学校（指定避難場所）","収容人数：695
災害適否  地震：利用可能 津波：利用可能 洪水：利用可能 土砂：利用可能","920-1108","金沢市俵町へ乙22","","","","","","","標高：229.5M",""
"1527","36.51879","136.706379","避難所","","","","","","東浅川小学校（指定避難場所）","収容人数：1133
災害適否  地震：利用可能 津波：利用可能 洪水：利用可能 土砂：未利用","920-1145","金沢市浅川町イ130","","","","","","","標高：67.0M",""
"1528","36.529666","136.705779","避難所","","","","","","太陽が丘詩の木公園（指定避難場所）","災害適否  地震：利用可能 津波：利用可能 洪水：利用可能 土砂：利用可能","920-1154","金沢市太陽が丘2-213","","","","","","","",""
"1529","36.53333","136.705661","避難所","","","","","","太陽が丘ゆうひみ公園（指定避難場所）","災害適否  地震：利用可能 津波：利用可能 洪水：利用可能 土砂：利用可能","920-1154","金沢市太陽が丘2-266","","","","","","","",""
"1530","36.560421","136.696603","避難所","","","","","","奥卯辰山健民公園（指定避難場所）","災害適否  地震：利用可能 津波：利用可能 洪水：利用可能 土砂：利用可能","920-1165","金沢市若松町、東長江町","","","","","","","",""
"1531","36.552333","136.68773","避難所","","","","","","医王の杜公園（指定避難場所）","災害適否  地震：利用可能 津波：利用可能 洪水：利用可能 土砂：利用可能","920-1167","金沢市もりの里1-1001","","","","","","","",""
"1532","36.55748","136.688977","避難所","","","","","","若松八幡さん公園（指定避難場所）","災害適否  地震：利用可能 津波：利用可能 洪水：利用可能 土砂：利用可能","920-1165","金沢市若松町3-1000","","","","","","","",""
"1533","36.550463","136.691572","避難所","","","","","","中瀬栃の木公園（指定避難場所）","災害適否  地震：利用可能 津波：利用可能 洪水：利用可能 土砂：利用可能","920-1166","金沢市上若松町1000","","","","","","","",""
"1534","36.554139","136.69126","避難所","","","","","","若松せせらぎ公園（指定避難場所）","災害適否  地震：利用可能 津波：利用可能 洪水：利用可能 土砂：利用可能","920-1165","金沢市若松町1001","","","","","","","",""
"1535","36.555722","136.684871","避難所","","","","","","浅野川すずかけ公園（指定避難場所）","災害適否  地震：利用可能 津波：利用可能 洪水：利用可能 土砂：利用可能","920-1167","金沢市もりの里2-1000","","","","","","","",""
"1536","36.557817","136.694182","避難所","","","","","","若松町第２児童公園（指定避難場所）","災害適否  地震：利用可能 津波：利用可能 洪水：利用可能 土砂：未利用","920-1165","金沢市若松町ツ168-1","","","","","","","",""
"1537","36.5431806","136.6966138","避難所","","","","","","田上中央公園（指定避難場所）","災害適否  地震：利用可能 津波：利用可能 洪水：利用可能 土砂：利用可能","920-1152","金沢市田上1-6","","","","","","","",""
"1538","36.553768","136.6840009","避難所","","","","","","旭町中央公園（指定避難場所）","災害適否  地震：利用可能 津波：利用可能 洪水：利用可能 土砂：利用可能","920-0941","金沢市旭町2-207","","","","","","","",""
"1539","36.555796","136.68133","避難所","","","","","","旭町なかよし公園（指定避難場所）","災害適否  地震：利用可能 津波：利用可能 洪水：利用可能 土砂：利用可能","920-0941","金沢市旭町2-8","","","","","","","",""
"1540","36.550764","136.687929","避難所","","","","","","旭町河畔公園（指定避難場所）","災害適否  地震：利用可能 津波：利用可能 洪水：未利用 土砂：利用可能","920-0941","金沢市旭町1-52","","","","","","","",""
"1541","36.543026","136.699946","避難所","","","","","","田上児童公園（指定避難場所）","災害適否  地震：利用可能 津波：利用可能 洪水：利用可能 土砂：未利用","920-1153","金沢市田上新町234-2","","","","","","","",""
"1542","36.545416","136.692067","避難所","","","","","","田上公民館（指定避難場所）","収容人数：157
災害適否  地震：利用可能 津波：利用可能 洪水：利用可能 土砂：利用可能","920-1151","金沢市田上町14街区4","","","","","","","",""
"1543","36.546169","136.692984","避難所","","","","","","田上小学校（指定避難場所）","収容人数：1850
災害適否  地震：利用可能 津波：利用可能 洪水：利用可能 土砂：利用可能","920-1151","金沢市田上町南46","","","","","","","標高：52.0M",""
"1544","36.55742","136.686323","避難所","","","","","","杜の里小学校（指定避難場所）","収容人数：2476
災害適否  地震：利用可能 津波：利用可能 洪水：利用可能 土砂：利用可能","920-1165","金沢市若松町3-282","","","","","","","標高：32.1M",""
"1545","36.491809","136.753296","避難所","","","","","","芝原中学校（指定避難場所）","収容人数：875
災害適否  地震：利用可能 津波：利用可能 洪水：利用可能 土砂：利用可能","920-1122","金沢市湯涌荒屋町23","","","","","","","標高：142.5M",""
"1546","36.491809","136.753296","避難所","","","","","","湯涌小学校（指定避難場所）","収容人数：1031
災害適否  地震：利用可能 津波：利用可能 洪水：利用可能 土砂：利用可能","920-1122","金沢市湯涌荒屋町23","","","","","","","標高：142.5M",""
"1547","36.522795","136.684472","避難所","","","","","","犀清台児童公園（指定避難場所）","災害適否  地震：利用可能 津波：利用可能 洪水：利用可能 土砂：利用可能","920-1302","金沢市末町13-52-32","","","","","","","",""
"1548","36.513878","136.69577","避難所","","","","","","金沢学院大学附属金沢学院高等学校（指定避難場所）","収容人数：506
災害適否  地震：利用可能 津波：利用可能 洪水：利用可能 土砂：利用可能","920-1302","金沢市末町10","","","","","","","",""
"1549","36.520514","136.690984","避難所","","","","","","金沢辰巳丘高校（指定避難場所）","収容人数：1346
災害適否  地震：利用可能 津波：利用可能 洪水：利用可能 土砂：利用可能","920-1302","金沢市末町ニ18","","","","","","","",""
"1550","36.514507","136.700255","避難所","","","","","","犀生中学校（指定避難場所）","収容人数：2136
災害適否  地震：利用可能 津波：利用可能 洪水：利用可能 土砂：利用可能","920-1302","金沢市末町10-4","","","","","","","標高：140.7M",""
"1551","36.483437","136.727987","避難所","","","","","","駒帰資料保管所（旧駒帰小学校）（指定避難場所）","収容人数：278
災害適否  地震：利用不可 津波：利用可能 洪水：利用可能 土砂：未利用","920-1313","金沢市駒帰町ヌ60","","","","","","","",""
"1552","36.51151","136.698041","避難所","","","","","","犀川小学校（指定避難場所）","収容人数：1631
災害適否  地震：利用可能 津波：利用可能 洪水：利用可能 土砂：利用可能","920-1302","金沢市末町2-148","","","","","","","標高：120.6M",""
"1553","36.511779","136.686611","避難所","","","","","","内川スポーツ広場（指定避難場所）","災害適否  地震：利用可能 津波：利用可能 洪水：利用可能 土砂：未利用","920-1337","金沢市山川町1-1","","","","","","","",""
"1554","36.509824","136.67496","避難所","","","","","","内川公民館（指定避難場所）","収容人数：110
災害適否  地震：利用可能 津波：利用可能 洪水：利用可能 土砂：利用可能","920-1346","金沢市三小牛町20-1-10","","","","","","","標高：177.8M",""
"1555","36.504466","136.676113","避難所","","","","","","内川中学校（指定避難場所）","収容人数：706
災害適否  地震：利用可能 津波：利用可能 洪水：利用可能 土砂：利用可能","920-1341","金沢市別所町ヰ18","","","","","","","標高：219.4M",""
"1556","36.504466","136.676113","避難所","","","","","","内川小学校（指定避難場所）","収容人数：895
災害適否  地震：利用可能 津波：利用可能 洪水：利用可能 土砂：利用可能","920-1341","金沢市別所町ヰ18","","","","","","","標高：219.4M",""
"1557","36.525618","136.691186","避難所","","","","","","土清水たかみ公園（指定避難場所）","災害適否  地震：利用可能 津波：利用可能 洪水：利用可能 土砂：利用可能","920-0955","金沢市土清水2-337","","","","","","","",""
"1558","36.528314","136.691364","避難所","","","","","","土清水なかの公園（指定避難場所）","災害適否  地震：利用可能 津波：利用可能 洪水：利用可能 土砂：利用可能","920-0955","金沢市土清水1-297","","","","","","","",""
"1559","36.532135","136.690992","避難所","","","","","","土清水みすぎ公園（指定避難場所）","災害適否  地震：利用可能 津波：利用可能 洪水：利用可能 土砂：利用可能","920-0955","金沢市土清水3-66","","","","","","","",""
"1560","36.545039","136.682934","避難所","","","","","","小立野児童公園（指定避難場所）","災害適否  地震：利用可能 津波：利用可能 洪水：利用可能 土砂：利用可能","920-0942","金沢市小立野1-729","","","","","","","",""
"1561","36.543713","136.677299","避難所","","","","","","三口新町第３児童公園（指定避難場所）","災害適否  地震：利用可能 津波：利用可能 洪水：利用可能 土砂：利用可能","920-0944","金沢市三口新町4-266","","","","","","","",""
"1562","36.539731","136.68081","避難所","","","","","","三口新町第２児童公園（指定避難場所）","災害適否  地震：利用可能 津波：利用可能 洪水：利用可能 土砂：利用可能","920-0944","金沢市三口新町2-145","","","","","","","",""
"1563","36.543928","136.681193","避難所","","","","","","三口新町第１児童公園（指定避難場所）","災害適否  地震：利用可能 津波：利用可能 洪水：利用可能 土砂：利用可能","920-0944","金沢市三口新町3-294","","","","","","","",""
"1564","36.533258","136.688786","避難所","","","","","","涌波堤公園（指定避難場所）","災害適否  地震：利用可能 津波：利用可能 洪水：利用可能 土砂：利用可能","920-0953","金沢市涌波1-199","","","","","","","",""
"1565","36.524789","136.691267","避難所","","","","","","城東市民体育館（指定避難場所）","収容人数：500
災害適否  地震：利用可能 津波：利用可能 洪水：利用可能 土砂：利用可能","920-0955","金沢市土清水2-346","","","","","","","標高：118.1M",""
"1566","36.537231","136.681246","避難所","","","","","","南小立野小学校（指定避難場所）","収容人数：2011
災害適否  地震：利用可能 津波：利用可能 洪水：利用可能 土砂：利用可能","920-0953","金沢市涌波2-5-1","","","","","","","標高：60.9M",""
"1567","36.547852","136.67541","避難所","","","","","","笠舞第３児童公園（指定避難場所）","災害適否  地震：利用可能 津波：利用可能 洪水：利用可能 土砂：利用可能","920-0965","金沢市笠舞1-234","","","","","","","",""
"1568","36.546794","136.680462","避難所","","","","","","崎浦公民館（指定避難場所）","収容人数：140
災害適否  地震：利用可能 津波：利用可能 洪水：利用可能 土砂：利用可能","920-0942","金沢市小立野2-41-36","","","","","","","標高：73.8M",""
"1569","36.550971","136.679032","避難所","","","","","","小立野公民館（指定避難場所）","収容人数：160
災害適否  地震：利用可能 津波：利用可能 洪水：利用可能 土砂：利用可能","920-0942","金沢市小立野4-7-51","","","","","","","標高：68.0M",""
"1570","36.556157","136.67731","避難所","","","","","","金沢美術工芸大学（指定避難場所）","収容人数：386
災害適否  地震：利用不可 津波：利用可能 洪水：利用可能 土砂：利用可能","920-0942","金沢市小立野5-11-1","","","","","","","",""
"1571","36.559441","136.667162","避難所","","","","","","北陸学院高校（指定避難場所）","収容人数：605
災害適否  地震：利用可能 津波：利用可能 洪水：利用可能 土砂：利用可能","920-0938","金沢市飛梅町1-10","","","","","","","",""
"1572","36.553168","136.679398","避難所","","","","","","金沢商業高校（指定避難場所）","収容人数：927
災害適否  地震：利用可能 津波：利用可能 洪水：利用可能 土砂：利用可能","920-0942","金沢市小立野5-4-1","","","","","","","",""
"1573","36.558062","136.668857","避難所","","","","","","紫錦台中学校（指定避難場所）","収容人数：2371
災害適否  地震：利用可能 津波：利用可能 洪水：利用可能 土砂：利用可能","920-0938","金沢市飛梅町3-30","","","","","","","標高：55.0M",""
"1574","36.551538","136.678696","避難所","","","","","","小立野小学校（指定避難場所）","収容人数：3412
災害適否  地震：利用可能 津波：利用可能 洪水：利用可能 土砂：利用可能","920-0942","金沢市小立野4-7-7","","","","","","","標高：66.0M",""
"1575","36.610865","136.602882","避難所","","","","","","大野町公民館（指定避難場所）","収容人数：61
災害適否  地震：利用可能 津波：利用可能 洪水：利用可能 土砂：利用可能","920-0231","金沢市大野町1-8-5","","","","","","","標高：3.0M",""
"1576","36.610354","136.60336","避難所","","","","","","大野町小学校（指定避難場所）","収容人数：1142
災害適否  地震：利用可能 津波：利用可能 洪水：利用可能 土砂：利用可能","920-0231","金沢市大野町1-15","","","","","","","標高：2.4M",""
"1577","36.607683","136.597032","避難所","","","","","","金石銭五公園（指定避難場所）","災害適否  地震：利用可能 津波：利用可能 洪水：利用可能 土砂：利用可能","920-0338","金沢市金石北2-147","","","","","","","",""
"1578","36.607993","136.59951","避難所","","","","","","松寿荘（指定避難場所）","収容人数：536
災害適否  地震：利用可能 津波：利用可能 洪水：利用可能 土砂：利用可能","920-0338","金沢市金石北3-3-33","","","","","","","標高：11.0M",""
"1579","36.604305","136.594367","避難所","","","","","","金石町公民館（指定避難場所）","収容人数：160
災害適否  地震：利用可能 津波：利用可能 洪水：利用可能 土砂：利用可能","920-0337","金沢市金石西4-5-30","","","","","","","標高：4.4M",""
"1580","36.600186","136.597081","避難所","","","","","","金石中学校（指定避難場所）","収容人数：3984
災害適否  地震：利用可能 津波：利用可能 洪水：２階以上で利用可能 土砂：利用可能","920-0335","金沢市金石東1-13-1","","","","","","","標高：1.8M",""
"1583","36.605055","136.608232","避難所","","","","","","無量寺公園（指定避難場所）","災害適否  地震：利用可能 津波：利用可能 洪水：未利用 土砂：利用可能","920-0333","金沢市無量寺3-14","","","","","","","",""
"1584","36.598011","136.603013","避難所","","","","","","城西市民体育館（指定避難場所）","収容人数：399
災害適否  地震：利用可能 津波：利用可能 洪水：利用可能 土砂：利用可能","920-0341","金沢市寺中町ヘ60","","","","","","","標高：2.1M",""
"1585","36.59234","136.609935","避難所","","","","","","大徳公民館（指定避難場所）","収容人数：270
災害適否  地震：利用可能 津波：利用可能 洪水：２階以上で利用可能 土砂：利用可能","920-0342","金沢市畝田西1-201-1","","","","","","","標高：2.3M",""
"1586","36.590407","136.60738","避難所","","","","","","大徳中学校（指定避難場所）","収容人数：3361
災害適否  地震：利用可能 津波：利用可能 洪水：利用可能 土砂：利用可能","920-0352","金沢市観音堂町ト35","","","","","","","標高：3.5M",""
"1587","36.597811","136.603866","避難所","","","","","","木曳野小学校（指定避難場所）","収容人数：2373
災害適否  地震：利用可能 津波：利用可能 洪水：利用可能 土砂：利用可能","920-0341","金沢市寺中町ヘ61","","","","","","","標高：2.3M",""
"1588","36.589565","136.62217","避難所","","","","","","藤江北中央公園（指定避難場所）","災害適否  地震：利用可能 津波：利用可能 洪水：利用可能 土砂：利用可能","920-0345","金沢市藤江北2-330","","","","","","","",""
"1589","36.59193","136.620074","避難所","","","","","","藤江北やすらぎ公園（指定避難場所）","災害適否  地震：利用可能 津波：利用可能 洪水：利用可能 土砂：利用可能","920-0345","金沢市藤江北4-446","","","","","","","",""
"1590","36.585716","136.614206","避難所","","","","","","松村第２公園（指定避難場所）","災害適否  地震：利用可能 津波：利用可能 洪水：未利用 土砂：利用可能","920-0348","金沢市松村2-29","","","","","","","",""
"1591","36.595333","136.614059","避難所","","","","","","畝田町児童公園（指定避難場所）","災害適否  地震：利用可能 津波：利用可能 洪水：未利用 土砂：利用可能","920-0344","金沢市畝田東2-6","","","","","","","",""
"1592","36.596728","136.617904","避難所","","","","","","金沢西高校（指定避難場所）","収容人数：257
災害適否  地震：利用可能 津波：利用可能 洪水：利用可能 土砂：利用可能","920-0344","金沢市畝田東3-216","","","","","","","標高：2.6M",""
"1593","36.592484","136.615654","避難所","","","","","","市立工業高校（指定避難場所）","収容人数：753
災害適否  地震：利用可能 津波：利用可能 洪水：利用可能 土砂：利用可能","920-0344","金沢市畝田東1-1-1","","","","","","","標高：4.0M",""
"1594","36.591196","136.610027","避難所","","","","","","大徳小学校（指定避難場所）","収容人数：2634
災害適否  地震：利用可能 津波：利用可能 洪水：２階以上で利用可能 土砂：利用可能","920-0348","金沢市松村6-200","","","","","","","標高：2.9M",""
"1595","36.565349","136.59056","避難所","","","","","","上安原中央公園（指定避難場所）","災害適否  地震：利用可能 津波：利用可能 洪水：利用可能 土砂：利用可能","920-0374","金沢市上安原町138-2街区","","","","","","","",""
"1596","36.561201","136.581049","避難所","","","","","","福増ゆめ公園（指定避難場所）","災害適否  地震：利用可能 津波：利用可能 洪水：利用可能 土砂：利用可能","920-0376","金沢市福増町52-2街区","","","","","","","",""
"1597","36.562891","136.582122","避難所","","","","","","福増あじさい公園（指定避難場所）","災害適否  地震：利用可能 津波：利用可能 洪水：未利用 土砂：利用可能","920-0376","金沢市福増町45街区2番","","","","","","","",""
"1598","36.568203","136.569794","避難所","","","","","","打木町くろまつ公園（指定避難場所）","災害適否  地震：利用可能 津波：利用可能 洪水：未利用 土砂：利用可能","920-0377","金沢市打木町東1452","","","","","","","",""
"1599","36.569134","136.572498","避難所","","","","","","打木町東児童公園（指定避難場所）","災害適否  地震：利用可能 津波：利用可能 洪水：未利用 土砂：利用可能","920-0377","金沢市打木町東1301","","","","","","","",""
"1600","36.568763","136.590725","避難所","","","","","","みどり第２児童公園（指定避難場所）","災害適否  地震：利用可能 津波：利用可能 洪水：利用可能 土砂：利用可能","920-0373","金沢市みどり1-172","","","","","","","",""
"1601","36.56741","136.584028","避難所","","","","","","みどり庭園公園（指定避難場所）","災害適否  地震：利用可能 津波：利用可能 洪水：利用可能 土砂：利用可能","920-0373","金沢市みどり3-22-1","","","","","","","",""
"1602","36.565756","136.577083","避難所","","","","","","みどり中央公園（指定避難場所）","災害適否  地震：利用可能 津波：利用可能 洪水：利用可能 土砂：利用可能","920-0373","金沢市みどり2-58-1","","","","","","","",""
"1603","36.5635791","136.5773759","避難所","","","","","","安原中央公園（指定避難場所）","災害適否  地震：利用可能 津波：利用可能 洪水：未利用 土砂：利用可能","920-0376","金沢市福増町北744","","","","","","","",""
"1604","36.570058","136.573433","避難所","","","","","","安原スポーツ広場（指定避難場所）","災害適否  地震：利用可能 津波：利用可能 洪水：利用可能 土砂：利用可能","920-0371","金沢市下安原町東1127","","","","","","","",""
"1605","36.567884","136.580432","避難所","","","","","","安原公民館（指定避難場所）","収容人数：210
災害適否  地震：利用可能 津波：利用可能 洪水：２階以上で利用可能 土砂：利用可能","920-0376","金沢市福増町22街区1","","","","","","","標高：4.1M",""
"1606","36.56639","136.586286","避難所","","","","","","尾山台高校（指定避難場所）","収容人数：378
災害適否  地震：利用可能 津波：利用可能 洪水：利用可能 土砂：利用可能","920-0374","金沢市上安原町169-1","","","","","","","標高：4.5M",""
"1607","36.570381","136.58412","避難所","","","","","","緑中学校（指定避難場所）","収容人数：3150
災害適否  地震：利用可能 津波：利用可能 洪水：利用可能 土砂：利用可能","920-0373","金沢市みどり2-3","","","","","","","標高：4.6M",""
"1608","36.567112","136.579822","避難所","","","","","","安原小学校（指定避難場所）","収容人数：2265
災害適否  地震：利用可能 津波：利用可能 洪水：２階以上で利用可能 土砂：利用可能","920-0376","金沢市福増町北317","","","","","","","標高：4.3M",""
"1609","36.582953","136.58664","避難所","","","","","","加賀友禅染色団地公園（指定避難場所）","災害適否  地震：利用可能 津波：利用可能 洪水：未利用 土砂：利用可能","920-0356","金沢市専光寺町ニ172","","","","","","","",""
"1610","36.582138","136.580584","避難所","","","","","","専光寺五本松公園（指定避難場所）","災害適否  地震：利用可能 津波：利用可能 洪水：利用可能 土砂：利用可能","920-0356","金沢市専光寺町ソ94","","","","","","","",""
"1611","36.573749","136.601568","避難所","","","","","","西部緑地公園（指定避難場所）","災害適否  地震：利用可能 津波：利用可能 洪水：未利用 土砂：利用可能","920-0361","金沢市袋畠町","","","","","","","",""
"1612","36.566532","136.601472","避難所","","","","","","松島町西公園（指定避難場所）","災害適否  地震：利用可能 津波：利用可能 洪水：未利用 土砂：利用可能","920-0364","金沢市松島3-179","","","","","","","",""
"1613","36.566568","136.609579","避難所","","","","","","古府徳代公園（指定避難場所）","災害適否  地震：利用可能 津波：利用可能 洪水：未利用 土砂：利用可能","920-0362","金沢市古府2-4","","","","","","","",""
"1614","36.5710344","136.6075697","避難所","","","","","","古府中央公園（指定避難場所）","災害適否  地震：利用可能 津波：利用可能 洪水：未利用 土砂：利用可能","920-0362","金沢市古府3-95","","","","","","","",""
"1615","36.564236","136.602021","避難所","","","","","","松島町中央公園（指定避難場所）","災害適否  地震：利用可能 津波：利用可能 洪水：未利用 土砂：利用可能","920-0364","金沢市松島2-165","","","","","","","",""
"1616","36.591793","136.585517","避難所","","","","","","健民海浜公園（指定避難場所）","災害適否  地震：利用可能 津波：利用可能 洪水：利用可能 土砂：利用可能","920-0351","金沢市普正寺町","","","","","","","",""
"1617","36.586255","136.578959","避難所","","","","","","市専光寺ソフトボール場（指定避難場所）","災害適否  地震：利用可能 津波：利用可能 洪水：利用可能 土砂：利用可能","920-0356","金沢市専光寺町レ35","","","","","","","",""
"1618","36.572778","136.597176","避難所","","","","","","二塚公民館（指定避難場所）","収容人数：109
災害適否  地震：利用可能 津波：利用可能 洪水：利用可能 土砂：利用可能","920-0367","金沢市北塚町西98","","","","","","","標高：5.0M",""
"1619","36.570126","136.590808","避難所","","","","","","緑小学校（指定避難場所）","収容人数：2589
災害適否  地震：利用可能 津波：利用可能 洪水：利用可能 土砂：利用可能","920-0373","金沢市みどり1-166","","","","","","","標高：4.5M",""
"1620","36.58701","136.64143","避難所","","","","","","西念町第２公園（指定避難場所）","災害適否  地震：利用可能 津波：利用可能 洪水：未利用 土砂：利用可能","920-0024","金沢市西念2-3101","","","","","","","",""
"1621","36.587377","136.636765","避難所","","","","","","西念町児童公園（指定避難場所）","災害適否  地震：利用可能 津波：利用可能 洪水：利用可能 土砂：利用可能","920-0024","金沢市西念3-701","","","","","","","",""
"1622","36.594632","136.639324","避難所","","","","","","南新保第２児童公園（指定避難場所）","災害適否  地震：利用可能 津波：利用可能 洪水：未利用 土砂：利用可能","920-0027","金沢市駅西新町2-1101","","","","","","","",""
"1623","36.591726","136.635274","避難所","","","","","","姉妹都市公園（指定避難場所）","災害適否  地震：利用可能 津波：利用可能 洪水：利用可能 土砂：利用可能","920-0027","金沢市駅西新町3-1001","","","","","","","",""
"1624","36.586902","136.640583","避難所","","","","","","西公民館（指定避難場所）","収容人数：143
災害適否  地震：利用可能 津波：利用可能 洪水：２階以上で利用可能 土砂：利用可能","920-0024","金沢市西念2-34-9","","","","","","","標高：5.3M",""
"1625","36.592415","136.636825","避難所","","","","","","西小学校（指定避難場所）","収容人数：1945
災害適否  地震：利用可能 津波：利用可能 洪水：利用可能 土砂：利用可能","920-0027","金沢市駅西新町3-15-1","","","","","","","標高：4.8M",""
"1626","36.589968","136.626399","避難所","","","","","","西都ゆめみどり公園（指定避難場所）","災害適否  地震：利用可能 津波：利用可能 洪水：利用可能 土砂：利用可能","920-8202","金沢市西都2-15","","","","","","","",""
"1627","36.582966","136.636102","避難所","","","","","","駅西第４児童公園（指定避難場所）","災害適否  地震：利用可能 津波：利用可能 洪水：利用可能 土砂：利用可能","920-0025","金沢市駅西本町3-406","","","","","","","",""
"1628","36.579271","136.619947","避難所","","","","","","桜田中央公園（指定避難場所）","災害適否  地震：利用可能 津波：利用可能 洪水：未利用 土砂：利用可能","920-0057","金沢市桜田町1-116","","","","","","","",""
"1629","36.585438","136.626571","避難所","","","","","","北町児童公園（指定避難場所）","災害適否  地震：利用可能 津波：利用可能 洪水：利用可能 土砂：利用可能","920-0025","金沢市駅西本町6-403","","","","","","","",""
"1630","36.576334","136.624938","避難所","","","","","","出雲中央公園（指定避難場所）","災害適否  地震：利用可能 津波：利用可能 洪水：未利用 土砂：利用可能","920-0056","金沢市出雲町イ418","","","","","","","",""
"1631","36.576797","136.621327","避難所","","","","","","桜田南児童公園（指定避難場所）","災害適否  地震：利用可能 津波：利用可能 洪水：未利用 土砂：利用可能","920-0057","金沢市桜田町2-65","","","","","","","",""
"1632","36.572884","136.6329","避難所","","","","","","大豆田公園（指定避難場所）","災害適否  地震：利用可能 津波：利用可能 洪水：利用可能 土砂：利用可能","921-8047","金沢市大豆田本町甲535","","","","","","","",""
"1633","36.575588","136.615787","避難所","","","","","","示野中青島公園（指定避難場所）","災害適否  地震：利用可能 津波：利用可能 洪水：未利用 土砂：利用可能","920-0058","金沢市示野中町2-114","","","","","","","",""
"1634","36.577936","136.617205","避難所","","","","","","示野中中央公園（指定避難場所）","災害適否  地震：利用可能 津波：利用可能 洪水：未利用 土砂：利用可能","920-0058","金沢市示野中町1-40","","","","","","","",""
"1635","36.575191","136.631024","避難所","","","","","","若宮中央公園（指定避難場所）","災害適否  地震：利用可能 津波：利用可能 洪水：利用可能 土砂：利用可能","920-0054","金沢市若宮2-29","","","","","","","",""
"1636","36.581476","136.607222","避難所","","","","","","示野町児童公園（指定避難場所）","災害適否  地震：利用可能 津波：利用可能 洪水：未利用 土砂：利用可能","920-0059","金沢市示野町西26","","","","","","","",""
"1637","36.579384","136.633686","避難所","","","","","","戸板公民館（指定避難場所）","収容人数：130
災害適否  地震：利用可能 津波：利用可能 洪水：利用可能 土砂：利用可能","920-0051","金沢市二口町ニ24-5","","","","","","","標高：7.0M",""
"1638","36.585147","136.629128","避難所","","","","","","長田中学校（指定避難場所）","収容人数：3451
災害適否  地震：利用可能 津波：利用可能 洪水：利用可能 土砂：利用可能","920-0067","金沢市二宮町1-1","","","","","","","標高：6.4M",""
"1639","36.579152","136.622468","避難所","","","","","","戸板小学校（指定避難場所）","収容人数：3032
災害適否  地震：利用可能 津波：利用可能 洪水：利用可能 土砂：利用可能","920-0068","金沢市戸板１丁目１番地","","","","","","","標高：6.6M",""
"1640","36.574896","136.640104","避難所","","","","","","長田２丁目ひまわり公園（指定避難場所）","災害適否  地震：利用可能 津波：利用可能 洪水：未利用 土砂：利用可能","920-0043","金沢市長田2-9番","","","","","","","",""
"1641","36.579937","136.639885","避難所","","","","","","駅西第３児童公園（指定避難場所）","災害適否  地震：利用可能 津波：利用可能 洪水：利用可能 土砂：利用可能","920-0025","金沢市駅西本町1-904","","","","","","","",""
"1642","36.582526","136.643596","避難所","","","","","","駅西中央公園（指定避難場所）","災害適否  地震：利用可能 津波：利用可能 洪水：利用可能 土砂：利用可能","920-0024","金沢市西念1-1101","","","","","","","",""
"1643","36.5785","136.643258","避難所","","","","","","駅西第１児童公園（指定避難場所）","災害適否  地震：利用可能 津波：利用可能 洪水：利用可能 土砂：利用可能","920-0031","金沢市広岡2-802","","","","","","","",""
"1644","36.575882","136.642986","避難所","","","","","","長田町公民館（指定避難場所）","収容人数：133
災害適否  地震：利用可能 津波：利用可能 洪水：利用可能 土砂：利用可能","920-0043","金沢市長田1-5-50","","","","","","","標高：9.4M",""
"1645","36.575357","136.6421","避難所","","","","","","長田町小学校（指定避難場所）","収容人数：2096
災害適否  地震：利用可能 津波：利用可能 洪水：利用可能 土砂：利用可能","920-0043","金沢市長田1-5-40","","","","","","","標高：9.3M",""
"1646","36.516305","136.619926","避難所","","","","","","額新町２丁目緑地（指定避難場所）","災害適否  地震：利用可能 津波：利用可能 洪水：利用可能 土砂：利用可能","921-8149","金沢市額新町2-49","","","","","","","",""
"1647","36.520147","136.621827","避難所","","","","","","額新町１丁目緑地（指定避難場所）","災害適否  地震：利用可能 津波：利用可能 洪水：利用可能 土砂：利用可能","921-8149","金沢市額新町1-183","","","","","","","",""
"1648","36.520842","136.625748","避難所","","","","","","光が丘１丁目児童公園（指定避難場所）","災害適否  地震：利用可能 津波：利用可能 洪水：利用可能 土砂：利用可能","921-8142","金沢市光が丘1-67","","","","","","","",""
"1649","36.517403","136.631023","避難所","","","","","","高尾南ゆうあい公園（指定避難場所）","災害適否  地震：利用可能 津波：利用可能 洪水：利用可能 土砂：利用可能","921-8154","金沢市高尾南2-119","","","","","","","",""
"1650","36.523454","136.622416","避難所","","","","","","馬替児童公園（指定避難場所）","災害適否  地震：利用可能 津波：利用可能 洪水：利用可能 土砂：利用可能","921-8141","金沢市馬替2-39-1","","","","","","","",""
"1651","36.523252","136.62716","避難所","","","","","","城谷公園（指定避難場所）","災害適否  地震：利用可能 津波：利用可能 洪水：利用可能 土砂：利用可能","921-8155","金沢市高尾台4-57","","","","","","","",""
"1652","36.515184","136.634331","避難所","","","","","","高尾第３児童公園（指定避難場所）","災害適否  地震：利用可能 津波：利用可能 洪水：利用可能 土砂：未利用","921-8154","金沢市高尾南1-165","","","","","","","",""
"1653","36.518064","136.62016","避難所","","","","","","あすなろ公園（指定避難場所）","災害適否  地震：利用可能 津波：利用可能 洪水：利用可能 土砂：利用可能","921-8149","金沢市額新町1-31","","","","","","","",""
"1654","36.517314","136.620497","避難所","","","","","","額新町第３児童公園（指定避難場所）","災害適否  地震：利用可能 津波：利用可能 洪水：利用可能 土砂：利用可能","921-8149","金沢市額新町2-77-1","","","","","","","",""
"1655","36.519052","136.623684","避難所","","","","","","額新町第２公園（指定避難場所）","災害適否  地震：利用可能 津波：利用可能 洪水：利用可能 土砂：利用可能","921-8149","金沢市額新町1-217","","","","","","","",""
"1656","36.522124","136.624092","避難所","","","","","","扇台公民館（指定避難場所）","収容人数：156
災害適否  地震：利用可能 津波：利用可能 洪水：利用可能 土砂：利用可能","921-8141","金沢市馬替1-29-1","","","","","","","標高：25.1M",""
"1657","36.522924","136.625436","避難所","","","","","","扇台小学校（指定避難場所）","収容人数：2549
災害適否  地震：利用可能 津波：利用可能 洪水：利用可能 土砂：利用可能","921-8141","金沢市馬替1-34","","","","","","","標高：24.9M",""
"1658","36.508122","136.618889","避難所","","","","","","三十苅児童公園（指定避難場所）","災害適否  地震：利用可能 津波：利用可能 洪水：未利用 土砂：利用可能","921-8131","金沢市三十苅町丙184","","","","","","","",""
"1659","36.507494","136.615425","避難所","","","","","","三十苅中央公園（指定避難場所）","災害適否  地震：利用可能 津波：利用可能 洪水：未利用 土砂：利用可能","921-8131","金沢市三十苅町丁154","","","","","","","",""
"1660","36.499874","136.621049","避難所","","","","","","中四十万児童公園（指定避難場所）","災害適否  地震：利用可能 津波：利用可能 洪水：利用可能 土砂：未利用","921-8133","金沢市四十万町リ部407","","","","","","","",""
"1661","36.497822","136.619473","避難所","","","","","","四十万あいぞめ公園（指定避難場所）","災害適否  地震：利用可能 津波：利用可能 洪水：利用可能 土砂：利用可能","921-8134","金沢市南四十万1-221","","","","","","","",""
"1662","36.503517","136.618292","避難所","","","","","","四十万中央公園（指定避難場所）","災害適否  地震：利用可能 津波：利用可能 洪水：利用可能 土砂：利用可能","921-8133","金沢市四十万町3-185","","","","","","","",""
"1663","36.502931","136.617579","避難所","","","","","","四十万小学校（指定避難場所）","収容人数：2492
災害適否  地震：利用可能 津波：利用可能 洪水：２階以上で利用可能 土砂：利用可能","921-8135","金沢市四十万3-186","","","","","","","標高：41.0M",""
"1664","36.509208","136.628877","避難所","","","","","","額谷運動広場（指定避難場所）","災害適否  地震：利用可能 津波：利用可能 洪水：利用可能 土砂：利用可能","921-8144","金沢市額谷町ホ2-3","","","","","","","",""
"1665","36.513079","136.627364","避難所","","","","","","光が丘３丁目児童公園（指定避難場所）","災害適否  地震：利用可能 津波：利用可能 洪水：利用可能 土砂：利用可能","921-8142","金沢市光が丘3-19","","","","","","","",""
"1666","36.508592","136.626285","避難所","","","","","","額谷第１児童公園（指定避難場所）","災害適否  地震：利用可能 津波：利用可能 洪水：利用可能 土砂：利用可能","921-8145","金沢市額谷2-49","","","","","","","",""
"1667","36.508174","136.618903","避難所","","","","","","額乙丸児童公園（指定避難場所）","災害適否  地震：利用可能 津波：利用可能 洪水：未利用 土砂：利用可能","921-8146","金沢市額乙丸町ハ151","","","","","","","",""
"1668","36.516795","136.62407","避難所","","","","","","大額２丁目公園（指定避難場所）","災害適否  地震：利用可能 津波：利用可能 洪水：利用可能 土砂：利用可能","921-8147","金沢市大額2-132","","","","","","","",""
"1669","36.514143","136.61855","避難所","","","","","","大額１丁目公園（指定避難場所）","災害適否  地震：利用可能 津波：利用可能 洪水：利用可能 土砂：利用可能","921-8147","金沢市大額1-378","","","","","","","",""
"1670","36.512077","136.624969","避難所","","","","","","額せせらぎ公園（指定避難場所）","災害適否  地震：利用可能 津波：利用可能 洪水：利用可能 土砂：利用可能","921-8147","金沢市大額3-237","","","","","","","",""
"1671","36.509064","136.629464","避難所","","","","","","額谷ふれあい公園（指定避難場所）","災害適否  地震：利用可能 津波：利用可能 洪水：利用可能 土砂：利用可能","921-8144","金沢市額谷町ヌ16","","","","","","","",""
"1672","36.516312","136.616272","避難所","","","","","","額新保中央公園（指定避難場所）","災害適否  地震：利用可能 津波：利用可能 洪水：利用可能 土砂：利用可能","921-8148","金沢市額新保2-350","","","","","","","",""
"1673","36.516282","136.627942","避難所","","","","","","光が丘中央公園（指定避難場所）","災害適否  地震：利用可能 津波：利用可能 洪水：利用可能 土砂：利用可能","921-8142","金沢市光が丘2-105","","","","","","","",""
"1674","36.509803","136.629528","避難所","","","","","","鶴寿園（指定避難場所）","収容人数：553
災害適否  地震：利用可能 津波：利用可能 洪水：利用可能 土砂：利用可能","921-8144","金沢市額谷町ヌ1","","","","","","","標高：55.2M",""
"1675","36.509409","136.629936","避難所","","","","","","額谷ふれあい体育館（指定避難場所）","収容人数：776
災害適否  地震：利用可能 津波：利用可能 洪水：利用可能 土砂：未利用","921-8144","金沢市額谷町ヌ16","","","","","","","標高：50.7M",""
"1676","36.510864","136.624167","避難所","","","","","","額公民館（指定避難場所）","収容人数：135
災害適否  地震：利用可能 津波：利用可能 洪水：利用可能 土砂：利用可能","921-8145","金沢市額谷3-1-1","","","","","","","標高：36.5M",""
"1677","36.511353","136.62332","避難所","","","","","","額中学校（指定避難場所）","収容人数：3250
災害適否  地震：利用可能 津波：利用可能 洪水：２階以上で利用可能 土砂：利用可能","921-8146","金沢市額乙丸町イ7","","","","","","","標高：35.0M",""
"1678","36.510489","136.621867","避難所","","","","","","額小学校（指定避難場所）","収容人数：2373
災害適否  地震：利用可能 津波：利用可能 洪水：２階以上で利用可能 土砂：利用可能","921-8146","金沢市額乙丸町イ41","","","","","","","標高：34.9M",""
"1679","36.522193","136.636471","避難所","","","","","","的場公園（指定避難場所）","災害適否  地震：利用可能 津波：利用可能 洪水：利用可能 土砂：利用可能","921-8155","金沢市高尾台1-354","","","","","","","",""
"1680","36.535324","136.623059","避難所","","","","","","横川日吉児童公園（指定避難場所）","災害適否  地震：利用可能 津波：利用可能 洪水：利用可能 土砂：利用可能","921-8163","金沢市横川1-68","","","","","","","",""
"1681","36.527494","136.630608","避難所","","","","","","三馬第４児童公園（指定避難場所）","災害適否  地震：利用可能 津波：利用可能 洪水：利用可能 土砂：利用可能","921-8162","金沢市三馬3-325","","","","","","","",""
"1682","36.526643","136.634777","避難所","","","","","","三馬第３児童公園（指定避難場所）","災害適否  地震：利用可能 津波：利用可能 洪水：利用可能 土砂：利用可能","921-8162","金沢市三馬1-73","","","","","","","",""
"1683","36.525164","136.631215","避難所","","","","","","三馬第２児童公園（指定避難場所）","災害適否  地震：利用可能 津波：利用可能 洪水：利用可能 土砂：利用可能","921-8162","金沢市三馬1-229","","","","","","","",""
"1684","36.5307","136.63915","避難所","","","","","","窪錦丘公園（指定避難場所）","災害適否  地震：利用可能 津波：利用可能 洪水：未利用 土砂：利用可能","921-8151","金沢市窪7-309","","","","","","","",""
"1685","36.528494","136.632137","避難所","","","","","","三馬第１児童公園（指定避難場所）","災害適否  地震：利用可能 津波：利用可能 洪水：利用可能 土砂：利用可能","921-8162","金沢市三馬3-150","","","","","","","",""
"1686","36.533472","136.630668","避難所","","","","","","久安殿屋敷公園（指定避難場所）","災害適否  地震：利用可能 津波：利用可能 洪水：未利用 土砂：利用可能","921-8164","金沢市久安2-281","","","","","","","",""
"1687","36.532901","136.632321","避難所","","","","","","久安伏見公園（指定避難場所）","災害適否  地震：利用可能 津波：利用可能 洪水：未利用 土砂：利用可能","921-8164","金沢市久安1-489","","","","","","","",""
"1688","36.531723","136.634992","避難所","","","","","","円光寺第２公園（指定避難場所）","災害適否  地震：利用可能 津波：利用可能 洪水：未利用 土砂：利用可能","921-8177","金沢市伏見台3-58","","","","","","","",""
"1689","36.52689","136.639652","避難所","","","","","","窪伏見台公園（指定避難場所）","災害適否  地震：利用可能 津波：利用可能 洪水：利用可能 土砂：利用可能","921-8151","金沢市窪4-547","","","","","","","",""
"1690","36.521395","136.630392","避難所","","","","","","高尾中央公園（指定避難場所）","災害適否  地震：利用可能 津波：利用可能 洪水：利用可能 土砂：利用可能","921-8155","金沢市高尾台3-143","","","","","","","",""
"1691","36.525937","136.638018","避難所","","","","","","伏見台公民館（指定避難場所）","収容人数：155
災害適否  地震：利用可能 津波：利用可能 洪水：利用可能 土砂：利用可能","921-8151","金沢市窪5-675","","","","","","","標高：28.4M",""
"1692","36.522918","136.634261","避難所","","","","","","高尾台中学校（指定避難場所）","収容人数：3844
災害適否  地震：利用可能 津波：利用可能 洪水：利用可能 土砂：利用可能","921-8155","金沢市高尾台1-128","","","","","","","標高：29.7M",""
"1693","36.526893","136.637924","避難所","","","","","","伏見台小学校（指定避難場所）","収容人数：2574
災害適否  地震：利用可能 津波：利用可能 洪水：利用可能 土砂：利用可能","921-8151","金沢市窪5-335","","","","","","","標高：27.1M",""
"1694","36.530351","136.655537","避難所","","","","","","大乗寺丘陵公園（指定避難場所）","災害適否  地震：利用可能 津波：利用可能 洪水：利用可能 土砂：利用可能","921-8112","金沢市長坂町","","","","","","","",""
"1695","36.533417","136.637974","避難所","","","","","","寺地なかよし公園（指定避難場所）","災害適否  地震：利用可能 津波：利用可能 洪水：利用可能 土砂：利用可能","921-8177","金沢市伏見台2-72","","","","","","","",""
"1696","36.535459","136.644028","避難所","","","","","","寺地みんなの広場（指定避難場所）","災害適否  地震：利用可能 津波：利用可能 洪水：利用可能 土砂：利用可能","921-8178","金沢市寺地1-39","","","","","","","",""
"1697","36.536928","136.635598","避難所","","","","","","寺地いなほ公園（指定避難場所）","災害適否  地震：利用可能 津波：利用可能 洪水：利用可能 土砂：利用可能","921-8178","金沢市寺地2-69","","","","","","","",""
"1698","36.538962","136.642686","避難所","","","","","","金沢南総合運動公園（指定避難場所）","災害適否  地震：利用可能 津波：利用可能 洪水：利用可能 土砂：利用可能","921-8171","金沢市富樫3-8，9","","","","","","","",""
"1699","36.528432","136.647259","避難所","","","","","","富樫公民館（指定避難場所）","収容人数：142
災害適否  地震：利用可能 津波：利用可能 洪水：利用可能 土砂：利用可能","921-8175","金沢市山科1-6-8","","","","","","","標高：36.9M",""
"1700","36.530401","136.641693","避難所","","","","","","金沢錦丘高校・中学校（指定避難場所）","収容人数：1241
災害適否  地震：利用可能 津波：利用可能 洪水：２階以上で利用可能 土砂：利用可能","921-8151","金沢市窪6-218","","","","","","","",""
"1701","36.529476","136.645712","避難所","","","","","","富樫小学校（指定避難場所）","収容人数：1877
災害適否  地震：利用可能 津波：利用可能 洪水：利用可能 土砂：利用可能","921-8175","金沢市山科3-6-60","","","","","","","標高：32.7M",""
"1702","36.550525","136.62651","避難所","","","","","","米泉公民館（指定避難場所）","収容人数：125
災害適否  地震：利用可能 津波：利用可能 洪水：２階以上で利用可能 土砂：利用可能","921-8044","金沢市米泉町8-126","","","","","","","標高：9.6M",""
"1703","36.549371","136.627885","避難所","","","","","","金沢伏見高校（指定避難場所）","収容人数：859
災害適否  地震：利用可能 津波：利用可能 洪水：利用可能 土砂：利用可能","921-8044","金沢市米泉町5-85","","","","","","","",""
"1704","36.545563","136.627927","避難所","","","","","","米泉小学校（指定避難場所）","収容人数：2602
災害適否  地震：利用可能 津波：利用可能 洪水：利用可能 土砂：利用可能","921-8044","金沢市米泉町4-133-2","","","","","","","標高：12.0M",""
"1705","36.546881","136.636007","避難所","","","","","","清泉公園（指定避難場所）","災害適否  地震：利用可能 津波：利用可能 洪水：利用可能 土砂：利用可能","921-8042","金沢市泉本町1-160-6","","","","","","","",""
"1706","36.539209","136.630229","避難所","","","","","","横川児童公園（指定避難場所）","災害適否  地震：利用可能 津波：利用可能 洪水：未利用 土砂：利用可能","921-8163","金沢市横川4-2","","","","","","","",""
"1707","36.540829","136.640359","避難所","","","","","","有松たつあがり公園（指定避難場所）","災害適否  地震：利用可能 津波：利用可能 洪水：利用可能 土砂：利用可能","921-8161","金沢市有松3-33","","","","","","","",""
"1708","36.54038","136.636787","避難所","","","","","","有松児童遊園（指定避難場所）","災害適否  地震：利用可能 津波：利用可能 洪水：利用可能 土砂：利用可能","921-8161","金沢市有松4-155","","","","","","","",""
"1709","36.542116","136.63456","避難所","","","","","","三馬公民館（指定避難場所）","収容人数：135
災害適否  地震：利用可能 津波：利用可能 洪水：利用可能 土砂：利用可能","921-8164","金沢市久安6-59-1","","","","","","","標高：13.8M",""
"1710","36.550414","136.63521","避難所","","","","","","金沢高校（指定避難場所）","収容人数：653
災害適否  地震：利用可能 津波：利用可能 洪水：利用可能 土砂：利用可能","921-8042","金沢市泉本町3-111","","","","","","","",""
"1711","36.547902","136.63624","避難所","","","","","","清泉中学校（指定避難場所）","収容人数：3532
災害適否  地震：利用可能 津波：利用可能 洪水：利用可能 土砂：利用可能","921-8042","金沢市泉本町3-3","","","","","","","標高：12.1M",""
"1712","36.543585","136.633621","避難所","","","","","","三馬小学校（指定避難場所）","収容人数：2543
災害適否  地震：利用可能 津波：利用可能 洪水：利用可能 土砂：利用可能","921-8164","金沢市久安6-154","","","","","","","標高：12.8M",""
"1713","36.552509","136.582702","避難所","","","","","","いなほふれあい公園（指定避難場所）","災害適否  地震：利用可能 津波：利用可能 洪水：利用可能 土砂：利用可能","920-0378","金沢市いなほ1-8","","","","","","","",""
"1714","36.56388","136.60016","避難所","","","","","","神野東公園（指定避難場所）","災害適否  地震：利用可能 津波：利用可能 洪水：未利用 土砂：利用可能","920-0365","金沢市神野町東107","","","","","","","",""
"1715","36.547743","136.592041","避難所","","","","","","上荒屋１丁目くすのき公園（指定避難場所）","災害適否  地震：利用可能 津波：利用可能 洪水：利用可能 土砂：利用可能","921-8065","金沢市上荒屋1-346","","","","","","","",""
"1716","36.560285","136.593384","避難所","","","","","","矢木第１児童公園（指定避難場所）","災害適否  地震：利用可能 津波：利用可能 洪水：利用可能 土砂：利用可能","921-8066","金沢市矢木3-308","","","","","","","",""
"1717","36.55329","136.588716","避難所","","","","","","上荒屋もくれん公園（指定避難場所）","災害適否  地震：利用可能 津波：利用可能 洪水：利用可能 土砂：利用可能","921-8065","金沢市上荒屋6-446","","","","","","","",""
"1718","36.557403","136.589365","避難所","","","","","","上荒屋にれの木公園（指定避難場所）","災害適否  地震：利用可能 津波：利用可能 洪水：利用可能 土砂：利用可能","921-8065","金沢市上荒屋5-453","","","","","","","",""
"1719","36.550429","136.589928","避難所","","","","","","上荒屋つばき公園（指定避難場所）","災害適否  地震：利用可能 津波：利用可能 洪水：利用可能 土砂：利用可能","921-8065","金沢市上荒屋8-43","","","","","","","",""
"1720","36.553753","136.593355","避難所","","","","","","三和公民館（指定避難場所）","収容人数：123
災害適否  地震：利用可能 津波：利用可能 洪水：利用可能 土砂：利用可能","921-8065","金沢市上荒屋4-82","","","","","","","標高：8.9M",""
"1721","36.557878","136.596713","避難所","","","","","","三和小学校（指定避難場所）","収容人数：2372
災害適否  地震：利用可能 津波：利用可能 洪水：利用可能 土砂：利用可能","921-8066","金沢市矢木1-74","","","","","","","標高：7.6M",""
"1722","36.552779","136.608354","避難所","","","","","","八日市出町ふるみや公園（指定避難場所）","災害適否  地震：利用可能 津波：利用可能 洪水：利用可能 土砂：利用可能","921-8063","金沢市八日市出町718","","","","","","","",""
"1723","36.559692","136.610672","避難所","","","","","","古府町第１児童公園（指定避難場所）","災害適否  地震：利用可能 津波：利用可能 洪水：利用可能 土砂：利用可能","920-0362","金沢市古府町南851","","","","","","","",""
"1724","36.554067","136.615508","避難所","","","","","","西金児童公園（指定避難場所）","災害適否  地震：利用可能 津波：利用可能 洪水：利用可能 土砂：利用可能","921-8055","金沢市西金沢新町256","","","","","","","",""
"1725","36.556092","136.604784","避難所","","","","","","チカモリ遺跡公園（指定避難場所）","災害適否  地震：利用可能 津波：利用可能 洪水：利用可能 土砂：利用可能","921-8062","金沢市新保本5-47","","","","","","","",""
"1726","36.557194","136.615923","避難所","","","","","","西部中央公園（指定避難場所）","災害適否  地震：利用可能 津波：利用可能 洪水：未利用 土砂：利用可能","921-8054","金沢市西金沢5-286","","","","","","","",""
"1727","36.55203","136.602165","避難所","","","","","","新保本町中央公園（指定避難場所）","災害適否  地震：利用可能 津波：利用可能 洪水：利用可能 土砂：利用可能","921-8062","金沢市新保本2-502","","","","","","","",""
"1728","36.558811","136.602898","避難所","","","","","","新保本町ふれあい公園（指定避難場所）","災害適否  地震：利用可能 津波：利用可能 洪水：利用可能 土砂：利用可能","921-8062","金沢市新保本4-70","","","","","","","",""
"1729","36.554588","136.611535","避難所","","","","","","市西金沢テニスコート（指定避難場所）","災害適否  地震：利用可能 津波：利用可能 洪水：利用可能 土砂：利用可能","921-8054","金沢市西金沢3-684","","","","","","","",""
"1730","36.554784","136.612195","避難所","","","","","","西南部公民館（指定避難場所）","収容人数：173
災害適否  地震：利用可能 津波：利用可能 洪水：利用可能 土砂：利用可能","921-8054","金沢市西金沢3-684","","","","","","","標高：8.6M",""
"1731","36.552698","136.606179","避難所","","","","","","西南部中学校（指定避難場所）","収容人数：3526
災害適否  地震：利用可能 津波：利用可能 洪水：利用可能 土砂：利用可能","921-8062","金沢市新保本1-149","","","","","","","標高：9.6M",""
"1732","36.555475","136.608368","避難所","","","","","","西南部小学校（指定避難場所）","収容人数：2718
災害適否  地震：利用可能 津波：利用可能 洪水：利用可能 土砂：利用可能","921-8063","金沢市八日市出町304","","","","","","","標高：8.6M",""
"1733","36.543696","136.608472","避難所","","","","","","八日市住吉中央公園（指定避難場所）","災害適否  地震：利用可能 津波：利用可能 洪水：利用可能 土砂：利用可能","921-8064","金沢市八日市2-608","","","","","","","",""
"1734","36.550737","136.60988","避難所","","","","","","八日市ケヤキ児童公園（指定避難場所）","災害適否  地震：利用可能 津波：利用可能 洪水：利用可能 土砂：利用可能","921-8064","金沢市八日市5-455","","","","","","","",""
"1735","36.547854","136.609928","避難所","","","","","","八日市ｱﾒﾘｶﾌｳ児童公園（指定避難場所）","災害適否  地震：利用可能 津波：利用可能 洪水：利用可能 土砂：利用可能","921-8064","金沢市八日市5-296","","","","","","","",""
"1736","36.548014","136.613868","避難所","","","","","","押野松の木公園（指定避難場所）","災害適否  地震：利用可能 津波：利用可能 洪水：利用可能 土砂：利用可能","921-8056","金沢市押野3-525","","","","","","","",""
"1737","36.546093","136.60859","避難所","","","","","","押野公民館（指定避難場所）","収容人数：154
災害適否  地震：利用可能 津波：利用可能 洪水：利用可能 土砂：利用可能","921-8064","金沢市八日市2-464","","","","","","","標高：12.7M",""
"1738","36.54594","136.609396","避難所","","","","","","押野小学校（指定避難場所）","収容人数：2333
災害適否  地震：利用可能 津波：利用可能 洪水：利用可能 土砂：利用可能","921-8064","金沢市八日市1-176","","","","","","","標高：13.3M",""
"1739","36.559243","136.622957","避難所","","","","","","糸田第２児童公園（指定避難場所）","災害適否  地震：利用可能 津波：利用可能 洪水：未利用 土砂：利用可能","921-8014","金沢市糸田2-207","","","","","","","",""
"1740","36.5662823","136.6268568","避難所","","","","","","入江第１児童公園（指定避難場所）","災害適否  地震：利用可能 津波：利用可能 洪水：利用可能 土砂：利用可能","921-8011","金沢市入江2-250","","","","","","","",""
"1741","36.5609386","136.6306624","避難所","","","","","","神田交通公園（指定避難場所）","災害適否  地震：利用可能 津波：利用可能 洪水：利用可能 土砂：利用可能","921-8013","金沢市新神田3-113","","","","","","","",""
"1742","36.563997","136.635623","避難所","","","","","","新神田公民館（指定避難場所）","収容人数：130
災害適否  地震：利用可能 津波：利用可能 洪水：利用可能 土砂：利用可能","921-8013","金沢市新神田1-1-18","","","","","","","標高：11.0M",""
"1743","36.565461","136.636217","避難所","","","","","","高岡中学校（指定避難場所）","収容人数：4185
災害適否  地震：利用可能 津波：利用可能 洪水：利用可能 土砂：利用可能","921-8013","金沢市新神田1-10-1","","","","","","","標高：11.9M",""
"1744","36.565363","136.634937","避難所","","","","","","新神田小学校（指定避難場所）","収容人数：2037
災害適否  地震：利用可能 津波：利用可能 洪水：利用可能 土砂：利用可能","921-8013","金沢市新神田1-10-58","","","","","","","標高：11.1M",""
"1745","36.558292","136.621426","避難所","","","","","","保古東公園（指定避難場所）","災害適否  地震：利用可能 津波：利用可能 洪水：未利用 土砂：利用可能","921-8052","金沢市保古1-120","","","","","","","",""
"1746","36.570837","136.612868","避難所","","","","","","高畠第２児童公園（指定避難場所）","災害適否  地震：利用可能 津波：利用可能 洪水：未利用 土砂：利用可能","921-8001","金沢市高畠1-262","","","","","","","",""
"1747","36.570389","136.616522","避難所","","","","","","米丸中央公園（指定避難場所）","災害適否  地震：利用可能 津波：利用可能 洪水：未利用 土砂：利用可能","921-8001","金沢市高畠1-382","","","","","","","",""
"1748","36.563133","136.61827","避難所","","","","","","伏見川中央公園（指定避難場所）","災害適否  地震：利用可能 津波：利用可能 洪水：未利用 土砂：利用可能","921-8016","金沢市東力町ハ273","","","","","","","",""
"1749","36.561367","136.615641","避難所","","","","","","黒田児童公園（指定避難場所）","災害適否  地震：利用可能 津波：利用可能 洪水：未利用 土砂：利用可能","921-8051","金沢市黒田1-9","","","","","","","",""
"1750","36.57357","136.622633","避難所","","","","","","玉鉾公園（指定避難場所）","災害適否  地震：利用可能 津波：利用可能 洪水：未利用 土砂：利用可能","921-8002","金沢市玉鉾2-361","","","","","","","",""
"1751","36.562847","136.623852","避難所","","","","","","あすなろの森（指定避難場所）","災害適否  地震：利用可能 津波：利用可能 洪水：未利用 土砂：利用可能","921-8015","金沢市東力4-90","","","","","","","",""
"1752","36.562935","136.619833","避難所","","","","","","西部市民体育会館（指定避難場所）","収容人数：1053
災害適否  地震：利用可能 津波：利用可能 洪水：２階以上で利用可能 土砂：利用可能","921-8016","金沢市東力町ハ250","","","","","","","標高：7.4M",""
"1753","36.563213","136.619252","避難所","","","","","","西部市民憩いの家（指定避難場所）","収容人数：288
災害適否  地震：利用可能 津波：利用可能 洪水：２階以上で利用可能 土砂：利用可能","921-8016","金沢市東力町ハ256","","","","","","","",""
"1754","36.565138","136.618266","避難所","","","","","","米丸公民館（指定避難場所）","収容人数：165
災害適否  地震：利用可能 津波：利用可能 洪水：２階以上で利用可能 土砂：利用可能","921-8005","金沢市間明町2-72","","","","","","","標高：6.2M",""
"1755","36.565682","136.619971","避難所","","","","","","米丸小学校（指定避難場所）","収容人数：2643
災害適否  地震：利用可能 津波：利用可能 洪水：２階以上で利用可能 土砂：利用可能","921-8016","金沢市東力町ニ155","","","","","","","標高：6.5M",""
"1756","36.632568","136.66425","避難所","","","","","","こなん水辺公園（指定避難場所）","災害適否  地震：利用可能 津波：利用可能 洪水：未利用 土砂：利用可能","920-0209","金沢市東蚊爪町マ33-1","","","","","","","",""
"1757","36.622979","136.66674","避難所","","","","","","瑞樹西公園（指定避難場所）","災害適否  地震：利用可能 津波：利用可能 洪水：未利用 土砂：利用可能","920-0201","金沢市みずき4-247","","","","","","","",""
"1758","36.636224","136.647813","避難所","","","","","","湊２丁目水鳥公園（指定避難場所）","災害適否  地震：利用可能 津波：利用可能 洪水：未利用 土砂：利用可能","920-0211","金沢市湊2-90-1","","","","","","","",""
"1759","36.634368","136.648284","避難所","","","","","","みなと新婚の森（指定避難場所）","災害適否  地震：利用可能 津波：利用可能 洪水：未利用 土砂：利用可能","920-0211","金沢市湊2-123","","","","","","","",""
"1760","36.62187","136.671946","避難所","","","","","","瑞樹中央公園（指定避難場所）","災害適否  地震：利用可能 津波：利用可能 洪水：利用可能 土砂：利用可能","920-0201","金沢市みずき2-262","","","","","","","",""
"1761","36.640035","136.65753","避難所","","","","","","湊１丁目公園（指定避難場所）","災害適否  地震：利用可能 津波：利用可能 洪水：未利用 土砂：利用可能","920-0211","金沢市湊1-118-1","","","","","","","",""
"1762","36.6179206","136.6666107","避難所","","","","","","木越運動公園（指定避難場所）","災害適否  地震：利用可能 津波：利用可能 洪水：利用可能 土砂：利用可能","920-0202","金沢市木越3-99","","","","","","","",""
"1763","36.619572","136.667181","避難所","","","","","","木越中央公園（指定避難場所）","災害適否  地震：利用可能 津波：利用可能 洪水：未利用 土砂：利用可能","920-0202","金沢市木越2-1","","","","","","","",""
"1764","36.625894","136.650469","避難所","","","","","","大浦公民館（指定避難場所）","収容人数：40
災害適否  地震：利用可能 津波：利用可能 洪水：未利用 土砂：利用可能","920-0205","金沢市大浦町","","","","","","","標高：1.0M",""
"1765","36.623281","136.653287","避難所","","","","","","大浦小学校（指定避難場所）","収容人数：2141
災害適否  地震：利用可能 津波：利用可能 洪水：２階以上で利用可能 土砂：利用可能","920-0205","金沢市大浦町ヌ87","","","","","","","標高：0.9M",""
"1766","36.602376","136.651757","避難所","","","","","","松寺中央公園（指定避難場所）","災害適否  地震：利用可能 津波：利用可能 洪水：未利用 土砂：利用可能","920-0011","金沢市松寺町子83-1","","","","","","","",""
"1767","36.597474","136.657704","避難所","","","","","","城北市民運動公園（指定避難場所）","災害適否  地震：利用可能 津波：利用可能 洪水：未利用 土砂：利用可能","920-0012","金沢市磯部町ニ25-1","","","","","","","",""
"1768","36.601582","136.656121","避難所","","","","","","城北市民テニスコート（指定避難場所）","災害適否  地震：利用可能 津波：利用可能 洪水：未利用 土砂：利用可能","920-0011","金沢市松寺町酉90-1","","","","","","","",""
"1769","36.603897","136.651954","避難所","","","","","","松寺公民館（指定避難場所）","収容人数：116
災害適否  地震：利用可能 津波：利用可能 洪水：２階以上で利用可能 土砂：利用可能","920-0011","金沢市松寺町丑42","","","","","","","標高：4.4M",""
"1770","36.625255","136.631218","避難所","","","","","","木谷公園（指定避難場所）","災害適否  地震：利用可能 津波：利用不可 洪水：利用可能 土砂：利用可能","920-0226","金沢市粟崎町リ1-1","","","","","","","",""
"1771","36.634055","136.621717","避難所","","","","","","粟崎町４丁目児童公園（指定避難場所）","災害適否  地震：利用可能 津波：利用可能 洪水：利用可能 土砂：利用可能","920-0226","金沢市粟崎町4-6","","","","","","","",""
"1772","36.626639","136.621164","避難所","","","","","","粟崎第１公園（指定避難場所）","災害適否  地震：利用可能 津波：利用可能 洪水：利用可能 土砂：利用可能","920-0226","金沢市粟崎町3-242","","","","","","","",""
"1773","36.630502","136.626171","避難所","","","","","","粟崎中央公園（指定避難場所）","災害適否  地震：利用可能 津波：利用可能 洪水：利用可能 土砂：利用可能","920-0226","金沢市粟崎町2-247","","","","","","","",""
"1774","36.625577","136.627885","避難所","","","","","","粟崎公民館（指定避難場所）","収容人数：116
災害適否  地震：利用可能 津波：利用可能 洪水：利用可能 土砂：利用可能","920-0226","金沢市粟崎町1-3","","","","","","","標高：11.1M",""
"1775","36.621217","136.624622","避難所","","","","","","粟崎小学校（指定避難場所）","収容人数：1926
災害適否  地震：利用可能 津波：利用可能 洪水：利用可能 土砂：利用可能","920-0226","金沢市粟崎町ヘ78","","","","","","","標高：6.7M",""
"1776","36.62846","136.620258","避難所","","","","","","ものづくり会館（指定避難場所）","収容人数：274
災害適否  地震：利用可能 津波：利用可能 洪水：利用可能 土砂：利用可能","920-0226","金沢市粟崎町4-80-1","","","","","","","標高：20.5M",""
"1777","36.624846","136.636039","避難所","","","","","","湊３丁目公園（指定避難場所）","災害適否  地震：利用可能 津波：利用可能 洪水：未利用 土砂：利用可能","920-0211","金沢市湊3-19-1","","","","","","","",""
"1778","36.599695","136.626494","避難所","","","","","","大友なぎさ公園（指定避難場所）","災害適否  地震：利用可能 津波：利用可能 洪水：利用可能 土砂：利用可能","920-8205","金沢市大友1-148","","","","","","","",""
"1779","36.597262","136.621956","避難所","","","","","","鞍月磯のひろば公園（指定避難場所）","災害適否  地震：利用可能 津波：利用可能 洪水：利用可能 土砂：利用可能","920-8203","金沢市鞍月4-53","","","","","","","",""
"1780","36.599175","136.620829","避難所","","","","","","鞍月広場（指定避難場所）","災害適否  地震：利用可能 津波：利用可能 洪水：未利用 土砂：利用可能","920-8203","金沢市鞍月4-21","","","","","","","",""
"1781","36.603303","136.620425","避難所","","","","","","戸水船のひろば公園（指定避難場所）","災害適否  地震：利用可能 津波：利用可能 洪水：未利用 土砂：利用可能","920-8204","金沢市戸水1-400","","","","","","","",""
"1782","36.615479","136.633777","避難所","","","","","","直江北公園（指定避難場所）","災害適否  地震：利用可能 津波：利用可能 洪水：未利用 土砂：利用可能","920-8218","金沢市直江北1-176","","","","","","","",""
"1783","36.608193","136.62383","避難所","","","","","","戸水公園（指定避難場所）","災害適否  地震：利用可能 津波：利用可能 洪水：未利用 土砂：利用可能","920-0211","金沢市湊4-62","","","","","","","",""
"1784","36.610771","136.634596","避難所","","","","","","鞍月中央公園（指定避難場所）","災害適否  地震：利用可能 津波：利用可能 洪水：未利用 土砂：利用可能","920-8216","金沢市直江町ト37-9","","","","","","","",""
"1785","36.602961","136.632932","避難所","","","","","","鞍月公民館（指定避難場所）","収容人数：195
災害適否  地震：利用可能 津波：利用可能 洪水：２階以上で利用可能 土砂：利用可能","920-8216","金沢市直江町92街区2","","","","","","","標高：2.9M",""
"1786","36.609821","136.628083","避難所","","","","","","港中学校（指定避難場所）","収容人数：3122
災害適否  地震：利用可能 津波：利用可能 洪水：２階以上で利用可能 土砂：利用可能","920-8217","金沢市近岡町217","","","","","","","標高：2.0M",""
"1787","36.601836","136.632494","避難所","","","","","","鞍月小学校（指定避難場所）","収容人数：1926
災害適否  地震：利用可能 津波：利用可能 洪水：利用可能 土砂：利用可能","920-0064","金沢市南新保町リ27-1","","","","","","","標高：3.0M",""
"1788","36.622492","136.634587","避難所","","","","","","北間町公園（指定避難場所）","災害適否  地震：利用可能 津波：利用可能 洪水：未利用 土砂：利用可能","920-0212","金沢市北間町ホ161","","","","","","","",""
"1789","36.608018","136.639831","避難所","","","","","","三口町第１児童公園（指定避難場所）","災害適否  地震：利用可能 津波：利用可能 洪水：未利用 土砂：利用可能","920-0018","金沢市三口町火237","","","","","","","",""
"1790","36.633507","136.646503","避難所","","","","","","湊運動公園（指定避難場所）","災害適否  地震：利用可能 津波：利用可能 洪水：未利用 土砂：利用可能","920-0211","金沢市湊2-86","","","","","","","",""
"1791","36.621208","136.638097","避難所","","","","","","北間町西公園（指定避難場所）","災害適否  地震：利用可能 津波：利用可能 洪水：未利用 土砂：利用可能","920-0212","金沢市北間町ハ93-1","","","","","","","",""
"1792","36.635298","136.647018","避難所","","","","","","湊２丁目釣公園（指定避難場所）","災害適否  地震：利用可能 津波：利用可能 洪水：未利用 土砂：利用可能","920-0211","金沢市湊2-34-1","","","","","","","",""
"1793","36.6113155","136.6401101","避難所","","","","","","弓取町児童公園（指定避難場所）","災害適否  地震：利用可能 津波：利用可能 洪水：未利用 土砂：利用可能","920-0215","金沢市弓取町172","","","","","","","",""
"1794","36.61484","136.639885","避難所","","","","","","浅野川市民体育館（指定避難場所）","収容人数：404
災害適否  地震：利用可能 津波：利用可能 洪水：未利用 土砂：利用可能","920-0213","金沢市大河端町西80-1","","","","","","","標高：1.4M",""
"1795","36.615365","136.639571","避難所","","","","","","浅野川公民館（指定避難場所）","収容人数：120
災害適否  地震：利用可能 津波：利用可能 洪水：２階以上で利用可能 土砂：利用可能","920-0213","金沢市大河端町西１丁目96番地","","","","","","","標高：1.5M",""
"1796","36.621053","136.641726","避難所","","","","","","浅野川小学校（指定避難場所）","収容人数：1830
災害適否  地震：利用可能 津波：利用可能 洪水：２階以上で利用可能 土砂：利用可能","920-0207","金沢市須崎町チ42","","","","","","","標高：2.1M",""
"1797","36.600458","136.646875","避難所","","","","","","諸江町下丁ふれあい公園（指定避難場所）","災害適否  地震：利用可能 津波：利用可能 洪水：未利用 土砂：利用可能","920-0014","金沢市諸江町下丁262-1","","","","","","","",""
"1798","36.586214","136.649381","避難所","","","","","","北安江２丁目公園（指定避難場所）","災害適否  地震：利用可能 津波：利用可能 洪水：未利用 土砂：利用可能","920-0022","金沢市北安江2-1408-2","","","","","","","",""
"1799","36.602511","136.6399","避難所","","","","","","割出町公園（指定避難場所）","災害適否  地震：利用可能 津波：利用可能 洪水：未利用 土砂：利用可能","920-0062","金沢市割出町418","","","","","","","",""
"1800","36.585532","136.646689","避難所","","","","","","駅西第２児童公園（指定避難場所）","災害適否  地震：利用可能 津波：利用可能 洪水：未利用 土砂：利用可能","920-0022","金沢市北安江3-1201","","","","","","","",""
"1801","36.606132","136.638293","避難所","","","","","","問屋町緑地（指定避難場所）","災害適否  地震：利用可能 津波：利用可能 洪水：未利用 土砂：利用可能","920-0061","金沢市問屋町1-61","","","","","","","",""
"1802","36.60769","136.639168","避難所","","","","","","問屋児童公園（指定避難場所）","災害適否  地震：利用可能 津波：利用可能 洪水：未利用 土砂：利用可能","920-0061","金沢市問屋町2-117-1","","","","","","","",""
"1804","36.593025","136.64207","避難所","","","","","","諸江児童公園（指定避難場所）","災害適否  地震：利用可能 津波：利用可能 洪水：未利用 土砂：利用可能","920-0014","金沢市諸江町2815","","","","","","","",""
"1805","36.590668","136.641505","避難所","","","","","","諸江公民館（指定避難場所）","収容人数：173
災害適否  地震：利用可能 津波：利用可能 洪水：２階以上で利用可能 土砂：利用可能","920-0014","金沢市諸江町29-1","","","","","","","標高：5.4M",""
"1806","36.602628","136.649032","避難所","","","","","","浅野川中学校（指定避難場所）","収容人数：3627
災害適否  地震：利用可能 津波：利用可能 洪水：２階以上で利用可能 土砂：利用可能","920-0014","金沢市諸江町下丁388","","","","","","","標高：4.0M",""
"1807","36.588649","136.64793","避難所","","","","","","諸江町小学校（指定避難場所）","収容人数：2583
災害適否  地震：利用可能 津波：利用可能 洪水：２階以上で利用可能 土砂：利用可能","920-0022","金沢市北安江2-25-1","","","","","","","標高：5.2M",""
"1809","36.580552","136.696624","避難所","","","","","","御所さくら公園（指定避難場所）","災害適否  地震：利用可能 津波：利用可能 洪水：利用可能 土砂：利用可能","920-0813","金沢市御所町1-407-1","","","","","","","",""
"1810","36.58115","136.700178","避難所","","","","","","御所ひがし公園（指定避難場所）","災害適否  地震：利用可能 津波：利用可能 洪水：利用可能 土砂：利用可能","920-0813","金沢市御所町2-172","","","","","","","",""
"1811","36.581895","136.697383","避難所","","","","","","御所にし公園（指定避難場所）","災害適否  地震：利用可能 津波：利用可能 洪水：利用可能 土砂：利用可能","920-0813","金沢市御所町2-189","","","","","","","",""
"1812","36.580801","136.69236","避難所","","","","","","御所かつら公園（指定避難場所）","災害適否  地震：利用可能 津波：利用可能 洪水：利用可能 土砂：利用可能","920-0813","金沢市御所町1-42","","","","","","","",""
"1813","36.573447","136.704411","避難所","","","","","","山王町第４児童公園（指定避難場所）","災害適否  地震：利用可能 津波：利用可能 洪水：利用可能 土砂：利用可能","920-0821","金沢市山王町1-394","","","","","","","",""
"1814","36.575971","136.696755","避難所","","","","","","山王町第２児童公園（指定避難場所）","災害適否  地震：利用可能 津波：利用可能 洪水：利用可能 土砂：利用可能","920-0821","金沢市山王町2-168","","","","","","","",""
"1815","36.56763","136.689192","避難所","","","","","","千寿閣（指定避難場所）","収容人数：289
災害適否  地震：利用可能 津波：利用可能 洪水：利用可能 土砂：利用可能","920-0822","金沢市東長江町辺2-1","","","","","","","標高：122.0M",""
"1816","36.572715","136.705605","避難所","","","","","","夕日寺公民館（指定避難場所）","収容人数：147
災害適否  地震：利用可能 津波：利用可能 洪水：利用可能 土砂：利用可能","920-0823","金沢市夕日寺町ロ35","","","","","","","標高：48.7M",""
"1817","36.577568","136.692366","避難所","","","","","","夕日寺小学校（指定避難場所）","収容人数：2220
災害適否  地震：利用可能 津波：利用可能 洪水：利用可能 土砂：未利用","920-0822","金沢市東長江町に17","","","","","","","標高：20.6M",""
"1818","36.601805","136.68485","避難所","","","","","","法光寺運動広場（指定避難場所）","災害適否  地震：利用可能 津波：利用可能 洪水：利用可能 土砂：利用可能","920-3132","金沢市法光寺町ト11-2","","","","","","","",""
"1819","36.611343","136.678925","避難所","","","","","","福久南ほたる公園（指定避難場所）","災害適否  地震：利用可能 津波：利用可能 洪水：利用可能 土砂：利用可能","920-3122","金沢市福久町ヘ47-1","","","","","","","",""
"1820","36.617294","136.679416","避難所","","","","","","福久中央公園（指定避難場所）","災害適否  地震：利用可能 津波：利用可能 洪水：未利用 土砂：利用可能","920-3126","金沢市福久1-78","","","","","","","",""
"1821","36.619381","136.68196","避難所","","","","","","福久かねと公園（指定避難場所）","災害適否  地震：利用可能 津波：利用可能 洪水：未利用 土砂：利用可能","920-3126","金沢市福久2-131","","","","","","","",""
"1822","36.607027","136.677485","避難所","","","","","","横枕はすの里公園（指定避難場所）","災害適否  地震：利用可能 津波：利用可能 洪水：未利用 土砂：利用可能","920-3135","金沢市横枕町ハ80-1","","","","","","","",""
"1823","36.614216","136.678642","避難所","","","","","","福久わんぱく公園（指定避難場所）","災害適否  地震：利用可能 津波：利用可能 洪水：未利用 土砂：利用可能","920-3122","金沢市福久町ヲ115","","","","","","","",""
"1824","36.616188","136.685192","避難所","","","","","","荒屋八幡公園（指定避難場所）","災害適否  地震：利用可能 津波：利用可能 洪水：未利用 土砂：利用可能","920-3124","金沢市荒屋1-96","","","","","","","",""
"1825","36.604622","136.681898","避難所","","","","","","法光寺ふれあい公園（指定避難場所）","災害適否  地震：利用可能 津波：利用可能 洪水：利用可能 土砂：利用可能","920-3132","金沢市法光寺町124-4","","","","","","","",""
"1826","36.602014","136.6733","避難所","","","","","","疋田中央公園（指定避難場所）","災害適否  地震：利用可能 津波：利用可能 洪水：未利用 土砂：利用可能","920-0003","金沢市疋田1-187","","","","","","","",""
"1827","36.604718","136.672979","避難所","","","","","","東インター公園（指定避難場所）","災害適否  地震：利用可能 津波：利用可能 洪水：未利用 土砂：利用可能","920-0003","金沢市疋田3-65","","","","","","","",""
"1828","36.605795","136.674127","避難所","","","","","","千坂公民館（指定避難場所）","収容人数：157
災害適否  地震：利用可能 津波：利用可能 洪水：２階以上で利用可能 土砂：利用可能","920-0002","金沢市千木1-119","","","","","","","標高：4.8M",""
"1829","36.605736","136.674977","避難所","","","","","","千坂小学校（指定避難場所）","収容人数：2159
災害適否  地震：利用可能 津波：利用可能 洪水：２階以上で利用可能 土砂：利用可能","920-0002","金沢市千木1-125","","","","","","","標高：5.0M",""
"1830","36.589787","136.67382","避難所","","","","","","城北中央公園（指定避難場所）","災害適否  地震：利用可能 津波：利用可能 洪水：未利用 土砂：利用可能","920-0811","金沢市小坂町西8-6","","","","","","","",""
"1831","36.585826","136.6793","避難所","","","","","","小坂白蓮公園（指定避難場所）","災害適否  地震：利用可能 津波：利用可能 洪水：未利用 土砂：利用可能","920-0811","金沢市小坂南589","","","","","","","",""
"1832","36.586651","136.666449","避難所","","","","","","神宮寺運動公園（指定避難場所）","災害適否  地震：利用可能 津波：利用可能 洪水：未利用 土砂：利用可能","920-0806","金沢市神宮寺3-123","","","","","","","",""
"1833","36.587652","136.668063","避難所","","","","","","神宮寺桜児童公園（指定避難場所）","災害適否  地震：利用可能 津波：利用可能 洪水：未利用 土砂：利用可能","920-0806","金沢市神宮寺2-326","","","","","","","",""
"1834","36.598692","136.689123","避難所","","","","","","神谷内児童公園（指定避難場所）","災害適否  地震：利用可能 津波：利用可能 洪水：利用可能 土砂：未利用","920-0801","金沢市神谷内町チ204-1","","","","","","","",""
"1835","36.593807","136.670766","避難所","","","","","","東金沢スポーツ広場（指定避難場所）","災害適否  地震：利用可能 津波：利用可能 洪水：未利用 土砂：利用可能","920-0802","金沢市三池町240-1","","","","","","","",""
"1836","36.593443","136.675689","避難所","","","","","","小坂公民館（指定避難場所）","収容人数：112
災害適否  地震：利用可能 津波：利用可能 洪水：２階以上で利用可能 土砂：利用可能","920-0811","金沢市小坂町北312","","","","","","","標高：8.6M",""
"1837","36.585023","136.682477","避難所","","","","","","星稜高校（指定避難場所）","収容人数：1386
災害適否  地震：利用可能 津波：利用可能 洪水：２階以上で利用可能 土砂：未利用","920-0811","金沢市小坂町南206","","","","","","","",""
"1838","36.595254","136.676222","避難所","","","","","","北鳴中学校（指定避難場所）","収容人数：3332
災害適否  地震：利用可能 津波：利用可能 洪水：２階以上で利用可能 土砂：利用可能","920-0811","金沢市小坂町北95","","","","","","","標高：8.5M",""
"1839","36.590108","136.677683","避難所","","","","","","小坂小学校（指定避難場所）","収容人数：2419
災害適否  地震：利用可能 津波：利用可能 洪水：利用可能 土砂：利用可能","920-0811","金沢市小坂町中142","","","","","","","標高：12.8M",""
"1840","36.572921","136.678474","避難所","","","","","","卯辰山公園（指定避難場所）","災害適否  地震：利用可能 津波：利用可能 洪水：利用可能 土砂：利用可能","920-0832","金沢市卯辰町","","","","","","","",""
"1841","36.576989","136.679966","避難所","","","","","","鳴和台市民公園（指定避難場所）","災害適否  地震：利用可能 津波：利用可能 洪水：利用可能 土砂：未利用","920-0815","金沢市鳴和台285","","","","","","","",""
"1842","36.580878","136.678962","避難所","","","","","","鳴和台桜丘公園（指定避難場所）","災害適否  地震：利用可能 津波：利用可能 洪水：利用可能 土砂：未利用","920-0815","金沢市鳴和台20","","","","","","","",""
"1843","36.580151","136.678137","避難所","","","","","","鳴和憩いの広場（指定避難場所）","災害適否  地震：利用可能 津波：利用可能 洪水：利用可能 土砂：未利用","920-0814","金沢市鳴和町タ175","","","","","","","",""
"1844","36.58316","136.671175","避難所","","","","","","小金町公園（指定避難場所）","災害適否  地震：利用可能 津波：利用可能 洪水：利用可能 土砂：利用可能","920-0805","金沢市小金町183","","","","","","","",""
"1845","36.57704","136.679161","避難所","","","","","","鳴和台市民体育会館（指定避難場所）","収容人数：1397
災害適否  地震：利用可能 津波：利用可能 洪水：利用可能 土砂：未利用","920-0815","金沢市鳴和台285","","","","","","","標高：50.9M",""
"1846","36.587541","136.669875","避難所","","","","","","城北市民体育館（指定避難場所）","収容人数：330
災害適否  地震：利用可能 津波：利用可能 洪水：利用可能 土砂：利用可能","920-0804","金沢市鳴和2-10-44","","","","","","","標高：8.6M",""
"1847","36.579398","136.669017","避難所","","","","","","森山公民館（指定避難場所）","収容人数：134
災害適否  地震：利用可能 津波：利用可能 洪水：利用可能 土砂：利用可能","920-0843","金沢市森山2-11-13","","","","","","","標高：12.4M",""
"1848","36.584311","136.678233","避難所","","","","","","金沢桜丘高校（指定避難場所）","収容人数：948
災害適否  地震：利用可能 津波：利用可能 洪水：利用可能 土砂：利用可能","920-0818","金沢市大樋町16-1","","","","","","","",""
"1849","36.586661","136.671389","避難所","","","","","","鳴和中学校（指定避難場所）","収容人数：3712
災害適否  地震：利用可能 津波：利用可能 洪水：利用可能 土砂：利用可能","920-0804","金沢市鳴和2-10-60","","","","","","","標高：9.6M",""
"1850","36.578565","136.667576","避難所","","","","","","森山町小学校（指定避難場所）","収容人数：2510
災害適否  地震：利用可能 津波：利用可能 洪水：利用可能 土砂：利用可能","920-0843","金沢市森山2-13-50","","","","","","","標高：11.5M",""
"1851","36.580615","136.663207","避難所","","","","","","元町第３児童公園（指定避難場所）","災害適否  地震：利用可能 津波：利用可能 洪水：未利用 土砂：利用可能","920-0842","金沢市元町2-137","","","","","","","",""
"1852","36.58459","136.657693","避難所","","","","","","浅野本町第３児童公園（指定避難場所）","災害適否  地震：利用可能 津波：利用可能 洪水：未利用 土砂：利用可能","920-0848","金沢市京町59","","","","","","","",""
"1853","36.584285","136.660849","避難所","","","","","","浅野本町第２児童公園（指定避難場所）","災害適否  地震：利用可能 津波：利用可能 洪水：未利用 土砂：利用可能","920-0841","金沢市浅野本町2-125","","","","","","","",""
"1854","36.586739","136.665312","避難所","","","","","","浅野町公民館（指定避難場所）","収容人数：113
災害適否  地震：利用可能 津波：利用可能 洪水：２階以上で利用可能 土砂：利用可能","920-0807","金沢市乙丸町甲161","","","","","","","標高：7.4M",""
"1855","36.581731","136.658818","避難所","","","","","","浅野町小学校（指定避難場所）","収容人数：1591
災害適否  地震：利用可能 津波：利用可能 洪水：２階以上で利用可能 土砂：利用可能","920-0848","金沢市京町35-1","","","","","","","標高：8.0M",""
"1857","36.572069","136.671863","避難所","","","","","","子来町さくら公園（指定避難場所）","災害適否  地震：利用可能 津波：利用可能 洪水：利用可能 土砂：利用可能","920-0836","金沢市子来町33","","","","","","","",""
"1858","36.57266","136.669258","避難所","","","","","","子来町緑地（指定避難場所）","災害適否  地震：利用可能 津波：利用可能 洪水：利用可能 土砂：利用可能","920-0836","金沢市子来町2","","","","","","","",""
"1860","36.574477","136.665101","避難所","","","","","","馬場公民館（指定避難場所）","収容人数：130
災害適否  地震：利用可能 津波：利用可能 洪水：２階以上で利用可能 土砂：利用可能","920-0831","金沢市東山3-9-35","","","","","","","標高：12.2M",""
"1861","36.574663","136.66549","避難所","","","","","","馬場小学校（指定避難場所）","収容人数：1561
災害適否  地震：利用可能 津波：利用可能 洪水：２階以上で利用可能 土砂：利用可能","920-0831","金沢市東山3-9-30","","","","","","","標高：12.6M",""
"1862","36.575801","136.657413","避難所","","","","","","瓢箪町公民館（指定避難場所）","収容人数：134
災害適否  地震：利用可能 津波：利用可能 洪水：利用可能 土砂：利用可能","920-0901","金沢市彦三町2-10-5","","","","","","","標高：12.2M",""
"1863","36.576904","136.657166","避難所","","","","","","明成小学校（指定避難場所）","収容人数：1162
災害適否  地震：利用可能 津波：利用可能 洪水：利用可能 土砂：利用可能","920-0845","金沢市瓢箪町5-48","","","","","","","標高：11.0M",""
"1864","36.580991","136.650984","避難所","","","","","","堀川新町公園（指定避難場所）","災害適否  地震：利用可能 津波：利用可能 洪水：利用可能 土砂：利用可能","920-0849","金沢市堀川新町70","","","","","","","",""
"1865","36.577417","136.652298","避難所","","","","","","此花町緑地（指定避難場所）","災害適否  地震：利用可能 津波：利用可能 洪水：利用可能 土砂：利用可能","920-0852","金沢市此花町149-1","","","","","","","",""
"1866","36.577193","136.651955","避難所","","","","","","此花公民館（指定避難場所）","収容人数：910
災害適否  地震：利用可能 津波：利用可能 洪水：利用可能 土砂：利用可能","920-0852","金沢市此花町2-7","","","","","","","標高：9.8M",""
"1867","36.569904","136.642132","避難所","","","","","","神保緑地（指定避難場所）","災害適否  地震：利用可能 津波：利用可能 洪水：利用可能 土砂：利用可能","920-0861","金沢市三社町373-1","","","","","","","",""
"1868","36.568944","136.648156","避難所","","","","","","穴水町児童公園（指定避難場所）","災害適否  地震：利用可能 津波：利用可能 洪水：未利用 土砂：利用可能","920-0867","金沢市長土塀1-152","","","","","","","",""
"1869","36.569072","136.650909","避難所","","","","","","玉川公園（指定避難場所）","災害適否  地震：利用可能 津波：利用可能 洪水：利用可能 土砂：利用可能","920-0863","金沢市玉川町","","","","","","","",""
"1870","36.571996","136.65003","避難所","","","","","","玉川苑（指定避難場所）","収容人数：212
災害適否  地震：利用可能 津波：利用可能 洪水：利用可能 土砂：利用可能","920-0862","金沢市芳斉2-3-28","","","","","","","標高：12.0M",""
"1871","36.572038","136.64985","避難所","","","","","","芳斎公民館（指定避難場所）","収容人数：114
災害適否  地震：利用可能 津波：利用可能 洪水：利用可能 土砂：利用可能","920-0862","金沢市芳斉2-3-29","","","","","","","標高：11.8M",""
"1872","36.572524","136.649105","避難所","","","","","","中央小学校芳斎分校（指定避難場所）","収容人数：1667
災害適否  地震：利用可能 津波：利用可能 洪水：利用可能 土砂：利用可能","920-0862","金沢市芳斉2-3-8","","","","","","","標高：11.8M",""
"1874","36.570143","136.639241","避難所","","","","","","大和町防災拠点広場（指定避難場所）","災害適否  地震：利用可能 津波：利用可能 洪水：利用可能 土砂：利用可能","920-0046","金沢市大和町1-1","","","","","","","",""
"1875","36.566611","136.645581","避難所","","","","","","中央市民体育館（指定避難場所）","収容人数：1747
災害適否  地震：利用可能 津波：利用可能 洪水：利用可能 土砂：利用可能","920-0865","金沢市長町3-3-3","","","","","","","標高：13.9M",""
"1876","36.567145","136.645886","避難所","","","","","","長土塀公民館（指定避難場所）","収容人数：93
災害適否  地震：利用不可 津波：利用可能 洪水：利用可能 土砂：利用可能","920-0865","金沢市長町3-3-3","","","","","","","",""
"1877","36.565847","136.660637","避難所","","","","","","金沢城公園（指定避難場所）","災害適否  地震：利用可能 津波：利用可能 洪水：利用可能 土砂：利用可能","920-0937","金沢市丸の内","","","","","","","",""
"1878","36.56947","136.652921","避難所","","","","","","松ヶ枝緑地（指定避難場所）","災害適否  地震：利用可能 津波：利用可能 洪水：利用可能 土砂：利用可能","920-0864","金沢市高岡町237-2","","","","","","","",""
"1879","36.569885","136.652844","避難所","","","","","","松ヶ枝公民館（指定避難場所）","収容人数：152
災害適否  地震：利用可能 津波：利用可能 洪水：利用可能 土砂：利用可能","920-0864","金沢市高岡町7-23","","","","","","","標高：15.4M",""
"1880","36.562791","136.649927","避難所","","","","","","長町緑地（指定避難場所）","災害適否  地震：利用可能 津波：利用可能 洪水：未利用 土砂：利用可能","920-0865","金沢市長町2-2-43","","","","","","","",""
"1881","36.563153","136.650153","避難所","","","","","","中央公民館長町館（指定避難場所）","収容人数：911
災害適否  地震：利用可能 津波：利用可能 洪水：利用可能 土砂：利用可能","920-0865","金沢市長町2-2-43","","","","","","","標高：16.7M",""
"1882","36.563425","136.649214","避難所","","","","","","長町公民館（指定避難場所）","収容人数：148
災害適否  地震：利用可能 津波：利用可能 洪水：利用可能 土砂：利用可能","920-0865","金沢市長町2-2-16","","","","","","","標高：16.6M",""
"1883","36.567183","136.650725","避難所","","","","","","中央小学校（指定避難場所）","収容人数：3584
災害適否  地震：利用可能 津波：利用可能 洪水：利用可能 土砂：利用可能","920-0865","金沢市長町1-10-35","","","","","","","標高：14.7M",""
"1885","36.560204","136.674404","避難所","","","","","","天神町緑地（指定避難場所）","災害適否  地震：利用可能 津波：利用可能 洪水：利用可能 土砂：利用可能","920-0925","金沢市天神町2-617","","","","","","","",""
"1886","36.558391","136.67731","避難所","","","","","","天神しらうめ公園（指定避難場所）","災害適否  地震：利用可能 津波：利用可能 洪水：利用可能 土砂：利用可能","920-0925","金沢市天神町1-586","","","","","","","",""
"1887","36.560525","136.679226","避難所","","","","","","田井町第１児童公園（指定避難場所）","災害適否  地震：利用可能 津波：利用可能 洪水：利用可能 土砂：利用可能","920-0924","金沢市田井町273","","","","","","","",""
"1888","36.56648","136.665274","避難所","","","","","","味噌蔵町公民館（指定避難場所）","収容人数：149
災害適否  地震：利用可能 津波：利用可能 洪水：利用可能 土砂：利用可能","920-0931","金沢市兼六元町7-19","","","","","","","標高：20.4M",""
"1889","36.559645","136.680268","避難所","","","","","","兼六中学校（指定避難場所）","収容人数：3262
災害適否  地震：利用可能 津波：利用可能 洪水：利用可能 土砂：利用可能","920-0924","金沢市田井町12-12","","","","","","","標高：23.4M",""
"1890","36.564375","136.664685","避難所","","","","","","小将町中学校（指定避難場所）","収容人数：2404
災害適否  地震：利用可能 津波：利用可能 洪水：利用可能 土砂：利用可能","920-0932","金沢市小将町1-15","","","","","","","標高：24.9M",""
"1891","36.565889","136.666004","避難所","","","","","","兼六小学校（指定避難場所）","収容人数：2180
災害適否  地震：利用可能 津波：利用可能 洪水：利用可能 土砂：利用可能","920-0931","金沢市兼六元町7-15","","","","","","","標高：20.2M",""
"1892","36.567463","136.673498","避難所","","","","","","常盤町緑地（指定避難場所）","災害適否  地震：利用可能 津波：利用可能 洪水：利用可能 土砂：未利用","920-0835","金沢市東御影町163-1","","","","","","","",""
"1893","36.563861","136.689744","避難所","","","","","","睦が丘公園（指定避難場所）","災害適否  地震：利用可能 津波：利用可能 洪水：利用可能 土砂：利用可能","920-1161","金沢市鈴見台4-174","","","","","","","",""
"1894","36.559838","136.685814","避難所","","","","","","郡家山公園（指定避難場所）","災害適否  地震：利用可能 津波：利用可能 洪水：利用可能 土砂：未利用","920-1162","金沢市鈴見町郡家山1000","","","","","","","",""
"1895","36.559712","136.683827","避難所","","","","","","鈴見しょうぶ公園（指定避難場所）","災害適否  地震：利用可能 津波：利用可能 洪水：利用可能 土砂：未利用","920-1167","金沢市もりの里3-1000","","","","","","","",""
"1896","36.562066","136.686821","避難所","","","","","","鈴見児童公園（指定避難場所）","災害適否  地震：利用可能 津波：利用可能 洪水：利用可能 土砂：利用可能","920-1161","金沢市鈴見台2-356","","","","","","","",""
"1897","36.56394","136.684385","避難所","","","","","","鈴見台第２児童公園（指定避難場所）","災害適否  地震：利用可能 津波：利用可能 洪水：利用可能 土砂：利用可能","920-1161","金沢市鈴見台4-43","","","","","","","",""
"1899","36.566961","136.667532","避難所","","","","","","材木公民館（指定避難場所）","収容人数：96
災害適否  地震：利用可能 津波：利用可能 洪水：利用可能 土砂：利用可能","920-0921","金沢市材木町13-11","","","","","","","標高：17.0M",""
"1900","36.567316","136.667968","避難所","","","","","","旧材木町小学校（指定避難場所）","収容人数：2179
災害適否  地震：利用可能 津波：利用可能 洪水：利用可能 土砂：利用可能","920-0921","金沢市材木町13-12","","","","","","","標高：16.9M",""
"1902","36.551374","136.659961","避難所","","","","","","菊川町公民館（指定避難場所）","収容人数：129
災害適否  地震：利用可能 津波：利用可能 洪水：利用可能 土砂：利用可能","920-0967","金沢市菊川2-3-3","","","","","","","標高：25.5M",""
"1903","36.543675","136.674374","避難所","","","","","","城南中学校（指定避難場所）","収容人数：2598
災害適否  地震：利用可能 津波：利用可能 洪水：利用可能 土砂：利用可能","920-0966","金沢市城南1-24-1","","","","","","","標高：34.9M",""
"1904","36.550316","136.661597","避難所","","","","","","菊川町小学校（指定避難場所）","収容人数：2206
災害適否  地震：利用可能 津波：利用可能 洪水：利用可能 土砂：利用可能","920-0967","金沢市菊川1-2-15","","","","","","","標高：26.3M",""
"1906","36.563252","136.655549","避難所","","","","","","いしかわ四高記念公園（指定避難場所）","災害適否  地震：利用可能 津波：利用可能 洪水：利用可能 土砂：利用可能","920-0962","金沢市広坂2丁目","","","","","","","",""
"1907","36.559332","136.662233","避難所","","","","","","本多の森公園（指定避難場所）","災害適否  地震：利用可能 津波：利用可能 洪水：利用可能 土砂：利用可能","920-0963","金沢市出羽町","","","","","","","",""
"1908","36.559134","136.660748","避難所","","","","","","本多公園（指定避難場所）","災害適否  地震：利用可能 津波：利用可能 洪水：利用可能 土砂：利用可能","920-0964","金沢市本多町3-51-1","","","","","","","",""
"1909","36.555979","136.656861","避難所","","","","","","新竪町公民館（指定避難場所）","収容人数：170
災害適否  地震：利用可能 津波：利用可能 洪水：利用可能 土砂：利用可能","920-0971","金沢市鱗町62","","","","","","","標高：22.7M",""
"1910","36.555479","136.66071","避難所","","","","","","遊学館高校（指定避難場所）","収容人数：214
災害適否  地震：利用可能 津波：利用可能 洪水：利用可能 土砂：利用可能","920-0964","金沢市本多町2-2-3","","","","","","","",""
"1911","36.556175","136.662596","避難所","","","","","","県立工業高校（指定避難場所）","収容人数：1124
災害適否  地震：利用可能 津波：利用可能 洪水：利用可能 土砂：利用可能","920-0964","金沢市本多町2-3-6","","","","","","","",""
"1912","36.555707","136.656858","避難所","","","","","","新竪町小学校（指定避難場所）","収容人数：1796
災害適否  地震：利用可能 津波：利用可能 洪水：利用可能 土砂：利用可能","920-0995","金沢市新竪町3-25","","","","","","","標高：23.2M",""
"1914","36.535715","136.652227","避難所","","","","","","泉野出町第３児童公園（指定避難場所）","災害適否  地震：利用可能 津波：利用可能 洪水：利用可能 土砂：利用可能","921-8116","金沢市泉野出町4-1533","","","","","","","",""
"1915","36.538973","136.66218","避難所","","","","","","平和町第１児童公園（指定避難場所）","災害適否  地震：利用可能 津波：利用可能 洪水：利用可能 土砂：利用可能","921-8105","金沢市平和町3-419","","","","","","","",""
"1916","36.532431","136.652649","避難所","","","","","","長坂台児童公園（指定避難場所）","災害適否  地震：利用可能 津波：利用可能 洪水：利用可能 土砂：利用可能","921-8115","金沢市長坂台136","","","","","","","",""
"1917","36.535173","136.656258","避難所","","","","","","長坂みはらし公園（指定避難場所）","災害適否  地震：利用可能 津波：利用可能 洪水：利用可能 土砂：利用可能","921-8112","金沢市長坂3-1521","","","","","","","",""
"1918","36.538935","136.664171","避難所","","","","","","金沢大学人間社会学域学校教育学類附属高等学校（指定避難場所）","収容人数：364
災害適否  地震：利用可能 津波：利用可能 洪水：利用可能 土砂：利用可能","921-8105","金沢市平和町1-1-15","","","","","","","",""
"1919","36.537978","136.665458","避難所","","","","","","金沢大学人間社会学域学校教育学類附属中学校（指定避難場所）","収容人数：749
災害適否  地震：利用可能 津波：利用可能 洪水：利用可能 土砂：利用可能","921-8105","金沢市平和町1-1-15","","","","","","","",""
"1920","36.536875","136.665919","避難所","","","","","","金沢大学人間社会学域学校教育学類附属小学校（指定避難場所）","収容人数：390
災害適否  地震：利用可能 津波：利用可能 洪水：利用可能 土砂：利用可能","921-8105","金沢市平和町1-1-15","","","","","","","",""
"1921","36.535006","136.657517","避難所","","","","","","長坂台小学校（指定避難場所）","収容人数：2376
災害適否  地震：利用可能 津波：利用可能 洪水：利用可能 土砂：利用可能","921-8112","金沢市長坂3-14-1","","","","","","","標高：58.4M",""
"1922","36.539398","136.656056","避難所","","","","","","泉野出町第２児童公園（指定避難場所）","災害適否  地震：利用可能 津波：利用可能 洪水：利用可能 土砂：利用可能","921-8116","金沢市泉野出町1-2107","","","","","","","",""
"1923","36.53754","136.650923","避難所","","","","","","泉野出町第１公園（指定避難場所）","災害適否  地震：利用可能 津波：利用可能 洪水：利用可能 土砂：利用可能","921-8116","金沢市泉野出町2-1601","","","","","","","",""
"1924","36.544314","136.656708","避難所","","","","","","城南市民体育館（指定避難場所）","収容人数：331
災害適否  地震：利用可能 津波：利用可能 洪水：利用可能 土砂：利用可能","921-8111","金沢市若草町1-60","","","","","","","標高：48.0M",""
"1925","36.539911","136.650051","避難所","","","","","","市総合体育館（指定避難場所）","収容人数：4286
災害適否  地震：利用可能 津波：利用可能 洪水：利用可能 土砂：利用可能","921-8116","金沢市泉野出町3-8-1","","","","","","","標高：40.7M",""
"1926","36.541333","136.658383","避難所","","","","","","金沢二水高校（指定避難場所）","収容人数：665
災害適否  地震：利用可能 津波：利用可能 洪水：利用可能 土砂：利用可能","921-8117","金沢市緑が丘20-15","","","","","","","",""
"1927","36.538653","136.649015","避難所","","","","","","金沢泉丘高校（指定避難場所）","収容人数：955
災害適否  地震：利用可能 津波：利用可能 洪水：利用可能 土砂：利用可能","921-8116","金沢市泉野出町3-10-10","","","","","","","",""
"1928","36.542714","136.654245","避難所","","","","","","泉野小学校（指定避難場所）","収容人数：2598
災害適否  地震：利用可能 津波：利用可能 洪水：利用可能 土砂：利用可能","921-8117","金沢市緑が丘4-64","","","","","","","標高：46.0M",""
"1930","36.54017","136.671072","避難所","","","","","","西大桑町児童公園（指定避難場所）","災害適否  地震：利用可能 津波：利用可能 洪水：利用可能 土砂：利用可能","921-8102","金沢市西大桑町715","","","","","","","",""
"1931","36.541144","136.665359","避難所","","","","","","平和町公園（指定避難場所）","災害適否  地震：利用可能 津波：利用可能 洪水：利用可能 土砂：利用可能","921-8105","金沢市平和町2-164","","","","","","","",""
"1932","36.527427","136.679069","避難所","","","","","","つつじが丘児童公園（指定避難場所）","災害適否  地震：利用可能 津波：利用可能 洪水：利用可能 土砂：未利用","921-8103","金沢市つつじが丘202","","","","","","","",""
"1933","36.525252","136.67701","避難所","","","","","","万寿苑（指定避難場所）","収容人数：515
災害適否  地震：利用可能 津波：利用可能 洪水：利用可能 土砂：利用可能","921-8046","金沢市大桑町ヤ1-4","","","","","","","標高：131.1M",""
"1934","36.541761","136.661158","避難所","","","","","","城南公民館（指定避難場所）","収容人数：329
災害適否  地震：利用可能 津波：利用可能 洪水：利用可能 土砂：利用可能","921-8111","金沢市若草町22-12","","","","","","","標高：52.0M",""
"1935","36.544247","136.657636","避難所","","","","","","野田中学校（指定避難場所）","収容人数：3775
災害適否  地震：利用可能 津波：利用可能 洪水：利用可能 土砂：利用可能","921-8111","金沢市若草町1-23","","","","","","","標高：47.5M",""
"1936","36.545327","136.660911","避難所","","","","","","十一屋小学校（指定避難場所）","収容人数：2615
災害適否  地震：利用可能 津波：利用可能 洪水：利用可能 土砂：利用可能","921-8106","金沢市十一屋町3-45","","","","","","","標高：47.5M",""
"1937","36.560004","136.646507","避難所","","","","","","白菊町緑地（指定避難場所）","災害適否  地震：利用可能 津波：利用可能 洪水：利用可能 土砂：利用可能","921-8024","金沢市白菊町370-1","","","","","","","",""
"1938","36.56227","136.637288","避難所","","","","","","神田町児童公園（指定避難場所）","災害適否  地震：利用可能 津波：利用可能 洪水：利用可能 土砂：利用可能","921-8027","金沢市神田1-271","","","","","","","",""
"1939","36.559501","136.635296","避難所","","","","","","神泉児童公園（指定避難場所）","災害適否  地震：利用可能 津波：利用可能 洪水：利用可能 土砂：利用可能","921-8027","金沢市神田2-27","","","","","","","",""
"1940","36.56135","136.644077","避難所","","","","","","中村町児童公園（指定避難場所）","災害適否  地震：利用可能 津波：利用可能 洪水：利用可能 土砂：利用可能","921-8022","金沢市中村町281","","","","","","","",""
"1941","36.559467","136.641945","避難所","","","","","","中村町公民館（指定避難場所）","収容人数：128
災害適否  地震：利用可能 津波：利用可能 洪水：利用可能 土砂：利用可能","921-8022","金沢市中村町10-35","","","","","","","標高：14.1M",""
"1942","36.560983","136.642059","避難所","","","","","","中村町小学校（指定避難場所）","収容人数：2174
災害適否  地震：利用可能 津波：利用可能 洪水：利用可能 土砂：利用可能","921-8022","金沢市中村町26-12","","","","","","","標高：14.5M",""
"1943","36.543945","136.6487","避難所","","","","","","泉が丘おあしす広場（指定避難場所）","災害適否  地震：利用可能 津波：利用可能 洪水：利用可能 土砂：利用可能","921-8041","金沢市泉ヶ丘1-72","","","","","","","",""
"1944","36.549087","136.644205","避難所","","","","","","弥生さくら公園（指定避難場所）","災害適否  地震：利用可能 津波：利用可能 洪水：利用可能 土砂：利用可能","921-8036","金沢市弥生1-753","","","","","","","",""
"1945","36.549385","136.644678","避難所","","","","","","弥生公民館（指定避難場所）","収容人数：130
災害適否  地震：利用可能 津波：利用可能 洪水：利用可能 土砂：利用可能","921-8036","金沢市弥生1-29-13","","","","","","","標高：27.0M",""
"1946","36.549168","136.645262","避難所","","","","","","泉中学校（指定避難場所）","収容人数：3279
災害適否  地震：利用不可 津波：利用可能 洪水：利用可能 土砂：利用可能","921-8036","金沢市弥生1-26-1","","","","","","","標高：31.0M",""
"1948","36.553143","136.647406","避難所","","","","","","野町公民館（指定避難場所）","収容人数：149
災害適否  地震：利用不可 津波：利用可能 洪水：利用可能 土砂：利用可能","921-8031","金沢市野町3-1-15","","","","","","","",""
"1949","36.554034","136.639015","避難所","","","","","","金沢中央高校（指定避難場所）","収容人数：690
災害適否  地震：利用可能 津波：利用可能 洪水：利用可能 土砂：利用可能","921-8042","金沢市泉本町6-105","","","","","","","",""
"1950","36.548845","136.645589","避難所","","","","","","泉小学校（指定避難場所）","収容人数：2791
災害適否  地震：利用可能 津波：利用可能 洪水：利用可能 土砂：利用可能","921-8036","金沢市弥生１丁目２６−１ 市立泉小学校","","","","","","","標高：31.7M",""
"1951","36.567227","136.645886","避難所","","","","","","長土塀交流館（指定避難場所）","収容人数：520
災害適否  地震：利用不可 津波：利用可能 洪水：利用可能 土砂：利用可能","920-0865","金沢市長町3-3-3","","","","","","","",""
"1952","36.545958","136.663605","避難所","","","","","","いしかわ子ども交流センター（指定避難場所）","収容人数：58
災害適否  地震：利用可能 津波：利用可能 洪水：利用可能 土砂：利用可能","921-8101","法島町11-8","","","","","","","",""
"1953","36.594143","136.648023","避難所","","","","","","諸江町上丁ゆうあい公園（指定避難場所）","災害適否  地震：利用可能 津波：利用可能 洪水：未利用 土砂：利用可能","920-0014","諸江町上丁523","","","","","","","",""
"1955","36.542182","136.689941","避難所","","","","","","田上さくらぶち公園（指定避難場所）","災害適否  地震：利用可能 津波：利用可能 洪水：利用可能 土砂：利用可能","920-1157","金沢市田上さくら１丁目100番地","","","","","","","",""
"1956","36.544294","136.693975","避難所","","","","","","田上郷公園（指定避難場所）","災害適否  地震：利用可能 津波：利用可能 洪水：利用可能 土砂：利用可能","920-1156","金沢市田上の里１丁目195番地","","","","","","","",""
"1957","36.5378","136.696694","避難所","","","","","","田上本町高嶋公園（指定避難場所）","災害適否  地震：利用可能 津波：利用可能 洪水：利用可能 土砂：利用可能","920-1155","金沢市田上本町３丁目52番地１","","","","","","","",""
"1958","36.50285","136.695739","避難所","","","","","","金沢工業大学天池自然学苑体育館（指定避難場所）","収容人数：656
災害適否  地震：利用可能 津波：利用可能 洪水：利用可能 土砂：利用可能","920-1331","天池町3","","","","","","","",""
"1959","36.507023","136.62373","避難所","","","","","","四十万きずな広場（指定避難場所）","災害適否  地震：利用可能 津波：利用可能 洪水：利用可能 土砂：利用可能","921-8133","金沢市四十万町北ヌ","","","","","","","",""
"1960","36.548083","136.688669","避難所","","","","","","田上桜の道公園（指定避難場所）","災害適否  地震：利用可能 津波：利用可能 洪水：利用可能 土砂：利用可能","920-1157","金沢市田上さくら３丁目111番地","","","","","","","",""
"1961","36.516559","136.6965","避難所","","","","","","金沢学院大学（指定避難場所）","収容人数：340
災害適否  地震：利用可能 津波：利用可能 洪水：利用可能 土砂：利用可能","920-1302","末町10","","","","","","","",""
"1962","36.518109","136.67056","避難所","","","","","","北陸学院大学（指定避難場所）","収容人数：413
災害適否  地震：利用可能 津波：利用可能 洪水：利用可能 土砂：利用可能","920-1346","三小牛町イ11","","","","","","","",""
"1963","36.517936","136.671912","避難所","","","","","","北陸学院小学校（指定避難場所）","収容人数：196
災害適否  地震：利用可能 津波：利用可能 洪水：利用可能 土砂：利用可能","920-1346","三小牛町イ11","","","","","","","",""
"1964","36.583409","136.682691","避難所","","","","","","金沢星稜大学（指定避難場所）","収容人数：1396
災害適否  地震：利用可能 津波：利用可能 洪水：２階以上で利用可能 土砂：未利用","920-0813","御所町丑10-1","","","","","","","",""
"1965","36.525431","136.70751","避難所","","","","","","北陸大学（指定避難場所）","収容人数：952
災害適否  地震：利用可能 津波：利用可能 洪水：利用可能 土砂：利用可能","920-1154","太陽が丘1-1","","","","","","","",""
"1966","36.548754","136.709877","避難所","","","","","","金沢大学角間キャンパス（指定避難場所）","収容人数：1616
災害適否  地震：利用可能 津波：利用可能 洪水：利用可能 土砂：利用可能","920-3134","金沢市角間町","","","","","","","",""
"1967","36.556565","136.675021","避難所","","","","","","金沢大学鶴間キャンパス（指定避難場所）","収容人数：381
災害適否  地震：利用可能 津波：利用可能 洪水：利用可能 土砂：利用可能","920-0934","宝町13-1","","","","","","","",""
"1968","36.597369","136.668946","避難所","","","","","","三池はすの里公園（指定避難場所）","災害適否  地震：利用可能 津波：利用可能 洪水：未利用 土砂：利用可能","920-0809","金沢市三池栄町346","","","","","","","",""
"1969","36.596241","136.672851","避難所","","","","","","三池はすのみ公園（指定避難場所）","災害適否  地震：利用可能 津波：利用可能 洪水：未利用 土砂：利用可能","920-0809","金沢市三池栄町201","","","","","","","",""
"1970","36.581226","136.625798","避難所","","","","","","戸板東公園（指定避難場所）","災害適否  地震：利用可能 津波：利用可能 洪水：利用可能 土砂：利用可能","920-0068","金沢市戸板４丁目19番地","","","","","","","",""
"2017","36.594339","136.604294","避難所","","","","","","金沢海みらい図書館（指定避難場所）","収容人数：264
災害適否  地震：利用可能 津波：利用可能 洪水：利用可能 土砂：利用可能","920-0341","金沢市寺中町イ１−１","","","","","","","標高：2.8M",""
"2018","36.565531","136.676437","避難所","","","","","","石川県青少年総合研修センター（指定避難場所）","収容人数：175
災害適否  地震：利用可能 津波：利用可能 洪水：利用可能 土砂：未利用","920-0834","金沢市常盤町２１２−１","","","","","","","",""
"2020","36.610635","136.681548","避難所","","","","","","金市やすらぎ公園（指定避難場所）","災害適否  地震：利用可能 津波：利用可能 洪水：利用可能 土砂：利用可能","920-3134","金沢市金市町ニ１２−１","","","","","","","",""
"2021","36.61106","136.667437","避難所","","","","","","千木日吉の森公園（指定避難場所）","災害適否  地震：利用可能 津波：利用可能 洪水：利用可能 土砂：利用可能","920-0001","金沢市千木町カ６６","","","","","","","",""
"2022","36.592494","136.624768","避難所","","","","","","鞍月セントラルパーク（指定避難場所）","災害適否  地震：利用可能 津波：利用可能 洪水：利用可能 土砂：利用可能","920-8202","金沢市西都２丁目","","","","","","","",""
"2023","36.579184","136.598418","避難所","","","","","","いしかわ総合スポーツセンター（指定避難場所）","収容人数：567
災害適否  地震：利用可能 津波：利用可能 洪水：未利用 土砂：利用可能","920-0355","金沢市稚日野町北","","","","","","","標高：4.6M",""
"2025","36.562468","136.586026","避難所","","","","","","産王の杜公園（指定避難場所）","災害適否  地震：利用可能 津波：利用可能 洪水：未利用 土砂：利用可能","920-0381","金沢市中屋２丁目","","","","","","","",""
"2026","36.562975","136.586547","避難所","","","","","","八洲原公園（指定避難場所）","災害適否  地震：利用可能 津波：利用可能 洪水：未利用 土砂：利用可能","920-0374","金沢市上安原町９４３","","","","","","","",""
"2027","36.601788","136.604458","避難所","","","","","","きびきの中央公園（指定避難場所）","災害適否  地震：利用可能 津波：利用可能 洪水：未利用 土砂：利用可能","920-0341","金沢市木曳野３６街区","","","","","","","",""
"2028","36.58219","136.615595","避難所","","","","","","松村あおぞら公園（指定避難場所）","災害適否  地震：利用可能 津波：利用可能 洪水：未利用 土砂：利用可能","920-0348","金沢市松村３丁目","","","","","","","",""
"2029","36.599833","136.613127","避難所","","","","","","無量寺ベイパーク（指定避難場所）","災害適否  地震：利用可能 津波：利用可能 洪水：未利用 土砂：利用可能","920-0333","金沢市無量寺４丁目２番地","","","","","","","",""
"2030","36.602408","136.615112","避難所","","","","","","無量寺うみかぜ公園（指定避難場所）","災害適否  地震：利用可能 津波：利用可能 洪水：未利用 土砂：利用可能","920-0332","金沢市無量寺町ハ201番地","","","","","","","",""
"2031","36.596279","136.597061","避難所","","","","","","大野湊緑地公園（指定避難場所）","災害適否  地震：利用可能 津波：利用可能 洪水：未利用 土砂：利用可能","920-0336","金沢市金石本町","","","","","","","",""
"2032","36.549485","136.673237","避難所","","","","","","笠舞第２児童公園（指定避難場所）","災害適否  地震：利用可能 津波：利用可能 洪水：利用可能 土砂：利用可能","920-0965","金沢市笠舞１丁目４１４","","","","","","","",""
"2033","36.535719","136.677447","避難所","","","","","","大桑かやのした公園（指定避難場所）","災害適否  地震：利用可能 津波：利用可能 洪水：利用可能 土砂：利用可能","921-8045","金沢市大桑３丁目８１","","","","","","","",""
"2035","36.608755","136.598879","避難所","","","","","","金石町小学校（指定避難場所）","収容人数：2188
災害適否  地震：利用可能 津波：利用可能 洪水：利用可能 土砂：利用可能","920-0338","金沢市金石北４丁目１−１","","","","","","","標高：8.1M",""
"2036","36.517878","136.743048","避難所","","","","","","キゴ山ふれあい研修センターこども交流棟（指定避難場所）","収容人数：998
災害適否  地震：利用可能 津波：利用可能 洪水：利用可能 土砂：利用可能","920-1141","金沢市平等本町カ","","","","","","","",""
"2037","36.52372","136.746017","避難所","","","","","","キゴ山ふれあい研修センター青少年交流棟（指定避難場所）","収容人数：1304
災害適否  地震：利用可能 津波：利用可能 洪水：利用可能 土砂：利用可能","920-1107","金沢市小豆沢町ヲ４","","","","","","","",""
"2038","36.583216","136.646472","避難所","","","","","","金沢勤労者プラザ（指定避難場所）","収容人数：176
災害適否  地震：利用可能 津波：利用可能 洪水：利用可能 土砂：利用可能","920-0022","金沢市北安江３丁目２−２０","","","","","","","標高：8.0M",""
"2039","36.532068","136.698963","避難所","","","","","","田上本町馬場公園（指定避難場所）","災害適否  地震：利用可能 津波：利用可能 洪水：利用可能 土砂：利用可能","920-1155","金沢市田上本町８１街区","","","","","","","",""
"2040","36.534585","136.6934","避難所","","","","","","田上本町朝霧公園（指定避難場所）","災害適否  地震：利用可能 津波：利用可能 洪水：利用可能 土砂：利用可能","920-1155","金沢市田上本町","","","","","","","",""
"2335","36.570622","136.645412","避難所","","","","","","女性センター（指定避難場所）","収容人数：81
災害適否  地震：利用可能 津波：利用可能 洪水：利用可能 土砂：利用可能","920-0861","金沢市三社町１−４４","","","","","","","標高：11.5M",""
"2337","36.581375","136.60983","避難所","","","","","","示野公園（指定避難場所）","災害適否  地震：利用可能 津波：利用可能 洪水：未利用 土砂：利用可能","920-0059","金沢市示野町チ233番地","","","","","","","",""
"2339","36.581625","136.622586","避難所","","","","","","戸板公園（指定避難場所）","災害適否  地震：利用可能 津波：利用可能 洪水：未利用 土砂：利用可能","920-0068","金沢市戸板５丁目87番地","","","","","","","",""
"2824","36.516912","136.688079","避難所","","","","","","犀川公民館（指定避難場所）","収容人数：154
災害適否  地震：利用可能 津波：利用可能 洪水：利用可能 土砂：利用可能","920-1302","石川県金沢市末町６の−６７−１","","","","","","","",""
"2825","36.562277","136.618274","避難所","","","","","","米丸交流広場（指定避難場所）","災害適否  地震：利用可能 津波：利用可能 洪水：未利用 土砂：利用可能","921-8016","金沢市東力町ハ3-1","","","","","","","",""
"2826","36.571474","136.655916","避難所","","","","","","近江町いちば館（指定避難場所）","収容人数：733
災害適否  地震：利用可能 津波：利用可能 洪水：利用可能 土砂：利用可能","920-8217","金沢市青草町８８","","","","","","","",""
"2827","36.532653","136.629426","避難所","","","","","","金沢工業高等専門学校（指定避難場所）","収容人数：3600人
災害適否  地震：利用可能 津波：利用可能 洪水：利用可能 土砂：利用可能","920-3134","金沢市久安２丁目２７０","","","","","","","",""
"2828","36.605257","136.708135","避難所","","","","","","河原市町みずほ中央公園（指定避難場所）","災害適否  地震：利用可能 津波：利用可能 洪水：利用可能 土砂：利用可能","920-0172","金沢市河原市町30番","","","","","","","",""
"2829","36.536341","136.676468","避難所","","","","","","大桑防災拠点広場（指定避難場所）","収容人数：200
災害適否  地震：利用可能 津波：利用可能 洪水：利用可能 土砂：利用可能","921-8045","金沢市大桑3丁目80番","","","","","","","",""
"2830","36.53547","136.669494","避難所","","","","","","野田東公園（指定避難場所）","災害適否  地震：利用可能 津波：利用可能 洪水：利用可能 土砂：利用可能","921-8107","金沢市野田２丁目120番地","","","","","","","",""
"2831","36.533709","136.663394","避難所","","","","","","野田西公園（指定避難場所）","災害適否  地震：利用可能 津波：利用可能 洪水：利用可能 土砂：利用可能","921-8107","金沢市野田４丁目173番地","","","","","","","",""
"2832","36.53441","136.708065","避難所","","","","","","太陽が丘しいの木公園（指定避難場所）","災害適否  地震：利用可能 津波：利用可能 洪水：利用可能 土砂：利用可能","920-1154","太陽ヶ丘土地区画整理事業地内7工区11街区","","","","","","","",""
"3185","36.592807","136.671058","避難所","","","","","","東金沢駅前かがやき公園（指定避難場所）","災害適否  地震：利用可能 津波：利用可能 洪水：未利用 土砂：利用可能","920-0802","金沢市三池町１９７−５３","","","","","","","",""
"3186","36.535081","136.668722","避難所","","","","","","野田南広場（指定避難場所）","災害適否  地震：利用可能 津波：利用可能 洪水：利用可能 土砂：利用可能","921-8107","金沢市野田１丁目45番地","","","","","","","",""
"3187","36.535081","136.668722","避難所","","","","","","野田中央公園（指定避難場所）","災害適否  地震：利用可能 津波：利用可能 洪水：利用可能 土砂：利用可能","921-8107","金沢市野田１丁目176番地","","","","","","","",""
"3188","36.616044","136.639819","避難所","","","","","","大河端西鷹狩り公園（指定避難場所）","災害適否  地震：利用可能 津波：利用可能 洪水：未利用 土砂：利用可能","920-0210","金沢市大河端西１丁目57番地","","","","","","","",""
"3189","36.562778","136.666093","避難所","","","","","","金沢大学人間社会学域学校教育学類附属特別支援学校（指定避難場所）","災害適否  地震：利用可能 津波：利用可能 洪水：利用可能 土砂：利用可能","920-0933","金沢市東兼六町２−１０","","","","","","","",""
"3801","36.552767","136.648021","避難所","","","","","","旧野町小学校（指定避難場所）","収容人数：1924
災害適否  地震：利用可能 津波：利用可能 洪水：利用可能 土砂：利用可能","921-8031","金沢市野町３丁目１１−１ 旧野町小学校","","","","","","","標高：31.0M",""
"4017","36.538989","136.675823","避難所","","","","","","犀川緑地（指定避難場所）","災害適否  地震：利用可能 津波：利用可能 洪水：未利用 土砂：利用可能","","金沢市涌波～普正寺町","","","","","","","緯度・経度はシステム上便宜的に入力しています。実際の位置（エリア）は犀川緑地（金沢市涌波～普正寺町）です。",""
"4018","36.597962","136.659445","避難所","","","","","","金沢プール（指定避難場所）","収容人数：809
災害適否  地震：利用可能 津波：利用可能 洪水：利用可能 土砂：利用可能","920-0012","金沢市磯部町ハ55番地","","","","","","","標高：4.8M",""
"4019","36.594682","136.625573","避難所","","","","","","東浅川公民館（指定避難場所）","収容人数：150
災害適否  地震：利用不可 津波：利用可能 洪水：未利用 土砂：利用可能","920-1146","金沢市上中町ニ14番地","","","","","","","標高：61.8M",""
